[
  {
    "title": "VERONIKA DELIKATESE Zagreb, Špansko",
    "street": "Trg 101. brigade 1",
    "city": "Zagreb",
    "postal_code": "",
    "lat": "45.7985485",
    "lng": "15.9059966",
    "phone": "01/3864-587",
    "email": "veronika.spansko@gmail.com",
    "open_hours": "{\"mon\":\"0\",\"tue\":\"0\",\"wed\":\"0\",\"thu\":\"0\",\"fri\":\"0\",\"sat\":\"0\",\"sun\":\"0\"}"
  },
  {
    "title": "VERONIKA DELIKATESE Zagreb, Mlinovi",
    "street": "Mlinovi 23",
    "city": "Zagreb",
    "postal_code": "",
    "lat": "45.844431",
    "lng": "15.97147",
    "phone": "01/4646-417",
    "email": "veronika.mlinovi@gmail.com",
    "open_hours": "{\"mon\":\"0\",\"tue\":\"0\",\"wed\":\"0\",\"thu\":\"0\",\"fri\":\"0\",\"sat\":\"0\",\"sun\":\"0\"}"
  },
  {
    "title": "VERONIKA DELIKATESE Zagreb, Srednjaci",
    "street": "Majstora Radonje 12",
    "city": "Zagreb",
    "postal_code": "",
    "lat": "45.7917401",
    "lng": "15.9395491",
    "phone": "01/3840-405",
    "email": "veronika.srednjaci@gmail.com",
    "open_hours": "{\"mon\":\"0\",\"tue\":\"0\",\"wed\":\"0\",\"thu\":\"0\",\"fri\":\"0\",\"sat\":\"0\",\"sun\":\"0\"}"
  },
  {
    "title": "VERONIKA DELIKATESE Zagreb, Lanište",
    "street": "Lanište 15c",
    "city": "Zagreb",
    "postal_code": "",
    "lat": "45.7727473",
    "lng": "15.9447947",
    "phone": "01/6542-352",
    "email": "veronika.laniste@gmail.com",
    "open_hours": "{\"mon\":\"0\",\"tue\":\"0\",\"wed\":\"0\",\"thu\":\"0\",\"fri\":\"0\",\"sat\":\"0\",\"sun\":\"0\"}"
  },
  {
    "title": "VERONIKA DELIKATESE Zagreb, Središće",
    "street": "Brune Bušića 7",
    "city": "Zagreb",
    "postal_code": "",
    "lat": "45.7798833",
    "lng": "15.9858702",
    "phone": "01/6637-656",
    "email": "veronika.sredisce@gmail.com",
    "open_hours": "{\"mon\":\"0\",\"tue\":\"0\",\"wed\":\"0\",\"thu\":\"0\",\"fri\":\"0\",\"sat\":\"0\",\"sun\":\"0\"}"
  },
  {
    "title": "VERONIKA DELIKATESE Zagreb, Dugave",
    "street": "Školski prilaz 1",
    "city": "Zagreb",
    "postal_code": "",
    "lat": "45.7645515",
    "lng": "15.9934614",
    "phone": "01/6621-636",
    "email": "veronika.dugave@gmail.com",
    "open_hours": "{\"mon\":\"0\",\"tue\":\"0\",\"wed\":\"0\",\"thu\":\"0\",\"fri\":\"0\",\"sat\":\"0\",\"sun\":\"0\"}"
  },
  {
    "title": "VERONIKA DELIKATESE Zagreb, Ilica",
    "street": "Ilica 62",
    "city": "Zagreb",
    "postal_code": "",
    "lat": "45.8132412",
    "lng": "15.9671775",
    "phone": "01/4846-880",
    "email": "veronika.ilica@gmail.com",
    "open_hours": "{\"mon\":\"0\",\"tue\":\"0\",\"wed\":\"0\",\"thu\":\"0\",\"fri\":\"0\",\"sat\":\"0\",\"sun\":\"0\"}"
  },
  {
    "title": "VERONIKA DELIKATESE Zagreb, Savska",
    "street": "Savska 147",
    "city": "Zagreb",
    "postal_code": "",
    "lat": "45.7911864",
    "lng": "15.9568429",
    "phone": "01/5603-838",
    "email": "veronika.savska@gmail.com",
    "open_hours": "{\"mon\":\"0\",\"tue\":\"0\",\"wed\":\"0\",\"thu\":\"0\",\"fri\":\"0\",\"sat\":\"0\",\"sun\":\"0\"}"
  },
  {
    "title": "VERONIKA DELIKATESE Zagreb, Maksimir",
    "street": "Petrova 167",
    "city": "Zagreb",
    "postal_code": "",
    "lat": "45.8228632",
    "lng": "16.0122611",
    "phone": "01/5999-477",
    "email": "veronika.maksimir@gmail.com",
    "open_hours": "{\"mon\":\"0\",\"tue\":\"0\",\"wed\":\"0\",\"thu\":\"0\",\"fri\":\"0\",\"sat\":\"0\",\"sun\":\"0\"}"
  },
  {
    "title": "VERONIKA DELIKATESE Zagreb, Jastrebarsko",
    "street": "Strossmayerov trg 9",
    "city": "Zagreb",
    "postal_code": "",
    "lat": "45.8084775",
    "lng": "15.978691",
    "phone": "01/6293-031",
    "email": "veronikajaska@gmail.com",
    "open_hours": "{\"mon\":\"0\",\"tue\":\"0\",\"wed\":\"0\",\"thu\":\"0\",\"fri\":\"0\",\"sat\":\"0\",\"sun\":\"0\"}"
  },
  {
    "title": "VERONIKA DELIKATESE Zagreb, Trešnjevka",
    "street": "Ozaljska 52",
    "city": "Zagreb",
    "postal_code": "",
    "lat": "45.7988479",
    "lng": "15.9480354",
    "phone": "01/2339-458",
    "email": "veronika.tresnjevka@gmail.com",
    "open_hours": "{\"mon\":\"0\",\"tue\":\"0\",\"wed\":\"0\",\"thu\":\"0\",\"fri\":\"0\",\"sat\":\"0\",\"sun\":\"0\"}"
  },
  {
    "title": "VERONIKA DELIKATESE Zagreb, Gračani",
    "street": "Kvintička 82",
    "city": "Zagreb",
    "postal_code": "",
    "lat": "45.8609438",
    "lng": "15.9849612",
    "phone": "01/2342-554",
    "email": "veronika.gracani@gmail.com",
    "open_hours": "{\"mon\":\"0\",\"tue\":\"0\",\"wed\":\"0\",\"thu\":\"0\",\"fri\":\"0\",\"sat\":\"0\",\"sun\":\"0\"}"
  },
  {
    "title": "VERONIKA DELIKATESE Zagreb, Vrbani",
    "street": "Malogorička ulica 52",
    "city": "Zagreb",
    "postal_code": "",
    "lat": "45.7906433",
    "lng": "15.9118452",
    "phone": "01/7882-688",
    "email": "veronika.vrbani3@gmail.com",
    "open_hours": "{\"mon\":\"0\",\"tue\":\"0\",\"wed\":\"0\",\"thu\":\"0\",\"fri\":\"0\",\"sat\":\"0\",\"sun\":\"0\"}"
  },
  {
    "title": "VERONIKA DELIKATESE Zagreb, Šalata",
    "street": "Bijenička ulica br.10",
    "city": "Zagreb",
    "postal_code": "",
    "lat": "45.8246621",
    "lng": "15.9851234",
    "phone": "01/2305-982",
    "email": "veronika.salatazg@gmail.com",
    "open_hours": "{\"mon\":\"0\",\"tue\":\"0\",\"wed\":\"0\",\"thu\":\"0\",\"fri\":\"0\",\"sat\":\"0\",\"sun\":\"0\"}"
  },
  {
    "title": "MINI MLJEKARA VERONIKA Rijeka, Tržnica",
    "street": "Zagrebačka 18b",
    "city": "Rijeka",
    "postal_code": "",
    "lat": "45.3246947",
    "lng": "14.4419745",
    "phone": "051/325-713",
    "email": "veronika.lisinski.rijeka@gmail.com",
    "open_hours": "{\"mon\":\"0\",\"tue\":\"0\",\"wed\":\"0\",\"thu\":\"0\",\"fri\":\"0\",\"sat\":\"0\",\"sun\":\"0\"}"
  },
  {
    "title": "MINI MLJEKARA VERONIKA Rijeka, Brajda",
    "street": "a.Manzonia 4b",
    "city": "Rijeka",
    "postal_code": "",
    "lat": "45.3307099",
    "lng": "14.4330918",
    "phone": "051/293-654",
    "email": "veronika.manzoni.rijeka@gmail.com",
    "open_hours": "{\"mon\":\"0\",\"tue\":\"0\",\"wed\":\"0\",\"thu\":\"0\",\"fri\":\"0\",\"sat\":\"0\",\"sun\":\"0\"}"
  },
  {
    "title": "MINI MLJEKARA VERONIKA Rijeka, Martinkovac",
    "street": "Martinkovac 150",
    "city": "Rijeka",
    "postal_code": "",
    "lat": "45.3521678",
    "lng": "14.365812",
    "phone": "051/504-688",
    "email": "veronika.martinkovac.rijeka@gmail.com",
    "open_hours": "{\"mon\":\"0\",\"tue\":\"0\",\"wed\":\"0\",\"thu\":\"0\",\"fri\":\"0\",\"sat\":\"0\",\"sun\":\"0\"}"
  },
  {
    "title": "MINI MLJEKARA VERONIKA Rijeka, Matulji",
    "street": "Kvarnerska cesta 73",
    "city": "Rijeka",
    "postal_code": "",
    "lat": "45.3571293",
    "lng": "14.3353327",
    "phone": "051/211-127",
    "email": "delikatese.veronika.rijeka@gmail.com",
    "open_hours": "{\"mon\":\"0\",\"tue\":\"0\",\"wed\":\"0\",\"thu\":\"0\",\"fri\":\"0\",\"sat\":\"0\",\"sun\":\"0\"}"
  },
  {
    "title": "MINI MLJEKARA VERONIKA Rijeka, Čavle",
    "street": "Čavle 17",
    "city": "Rijeka",
    "postal_code": "",
    "lat": "45.3580583",
    "lng": "14.4848942",
    "phone": "051/244-604",
    "email": "veronika.cavle@gmail.com",
    "open_hours": "{\"mon\":\"0\",\"tue\":\"0\",\"wed\":\"0\",\"thu\":\"0\",\"fri\":\"0\",\"sat\":\"0\",\"sun\":\"0\"}"
  },
  {
    "title": "MINI MLJEKARA VERONIKA Rijeka, Vežica",
    "street": "Drage Gervaisa 39",
    "city": "Rijeka",
    "postal_code": "",
    "lat": "45.3198462",
    "lng": "14.4685546",
    "phone": "099/4902907",
    "email": "veronika.vezica@gmail.com",
    "open_hours": "{\"mon\":\"0\",\"tue\":\"0\",\"wed\":\"0\",\"thu\":\"0\",\"fri\":\"0\",\"sat\":\"0\",\"sun\":\"0\"}"
  },
  {
    "title": "MINI MLJEKARA VERONIKA Rijeka, Viškovo",
    "street": "Viškovo 122",
    "city": "Rijeka",
    "postal_code": "",
    "lat": "45.3791472",
    "lng": "14.3862893",
    "phone": "051/246797",
    "email": "veronika.viskovo@gmail.com",
    "open_hours": "{\"mon\":\"0\",\"tue\":\"0\",\"wed\":\"0\",\"thu\":\"0\",\"fri\":\"0\",\"sat\":\"0\",\"sun\":\"0\"}"
  },
  {
    "title": "MINI MLJEKARA VERONIKA Rijeka, Crikvenica",
    "street": "Braće Brozičević 10",
    "city": "Rijeka",
    "postal_code": "",
    "lat": "45.3270631",
    "lng": "14.442176",
    "phone": "051/504-663",
    "email": "veronika.crikvenica@gmail.com",
    "open_hours": "{\"mon\":\"0\",\"tue\":\"0\",\"wed\":\"0\",\"thu\":\"0\",\"fri\":\"0\",\"sat\":\"0\",\"sun\":\"0\"}"
  },
  {
    "title": "MINI MLJEKARA VERONIKA Rijeka, Marinići",
    "street": "Marinići - plac",
    "city": "Rijeka",
    "postal_code": "",
    "lat": "45.3652354",
    "lng": "14.3926584",
    "phone": "051/403-367",
    "email": "veronika.marinici@gmail.hr",
    "open_hours": "{\"mon\":\"0\",\"tue\":\"0\",\"wed\":\"0\",\"thu\":\"0\",\"fri\":\"0\",\"sat\":\"0\",\"sun\":\"0\"}"
  },
  {
    "title": "MINI MLJEKARA VERONIKA Split, City Center ONE Split",
    "street": "Vukovarska 207",
    "city": "Split",
    "postal_code": "",
    "lat": "43.5134555",
    "lng": "16.5029202",
    "phone": "091 610 6656",
    "email": "veronika.citysplit@gmail.com",
    "open_hours": "{\"mon\":\"0\",\"tue\":\"0\",\"wed\":\"0\",\"thu\":\"0\",\"fri\":\"0\",\"sat\":\"0\",\"sun\":\"0\"}"
  },
  {
    "title": "MINI MLJEKARA VERONIKA Split, Poljička",
    "street": "Poljička cesta 9",
    "city": "Split",
    "postal_code": "",
    "lat": "43.5056072",
    "lng": "16.45707",
    "phone": "021 635 039",
    "email": "ceronika.poljicka@gmail.com",
    "open_hours": "{\"mon\":\"0\",\"tue\":\"0\",\"wed\":\"0\",\"thu\":\"0\",\"fri\":\"0\",\"sat\":\"0\",\"sun\":\"0\"}"
  },
  {
    "title": "MINI MLJEKARA VERONIKA Split, Sućidar",
    "street": "Vinkovačka ulica 2",
    "city": "Split",
    "postal_code": "",
    "lat": "43.5140916",
    "lng": "16.4548799",
    "phone": "091 610 6696",
    "email": "",
    "open_hours": "{\"mon\":\"0\",\"tue\":\"0\",\"wed\":\"0\",\"thu\":\"0\",\"fri\":\"0\",\"sat\":\"0\",\"sun\":\"0\"}"
  },
  {
    "title": "MINI MLJEKARA VERONIKA Split, Podhodnik",
    "street": "Ruđera Boškovića 16a",
    "city": "Split",
    "postal_code": "",
    "lat": "43.5072262",
    "lng": "16.4661273",
    "phone": "091 610 6633",
    "email": "veronika.pothodnik@gmail.com",
    "open_hours": "{\"mon\":\"0\",\"tue\":\"0\",\"wed\":\"0\",\"thu\":\"0\",\"fri\":\"0\",\"sat\":\"0\",\"sun\":\"0\"}"
  },
  {
    "title": "MINI MLJEKARA VERONIKA Split, JOKER",
    "street": "Put Brodarice 6",
    "city": "Split",
    "postal_code": "",
    "lat": "43.5193638",
    "lng": "16.4459429",
    "phone": "099 589 1775",
    "email": "veronika.joker.split@gmail.com",
    "open_hours": "{\"mon\":\"0\",\"tue\":\"0\",\"wed\":\"0\",\"thu\":\"0\",\"fri\":\"0\",\"sat\":\"0\",\"sun\":\"0\"}"
  },
  {
    "title": "STUDENAC Baška Voda, Ulica Tri ceste 3B",
    "street": "Ulica Tri ceste 3B",
    "city": "Baška Voda",
    "postal_code": "21320",
    "lat": "43.3541308",
    "lng": "16.9558058",
    "phone": "091-420-9664",
    "email": "",
    "open_hours": "{\"mon\":\"0\",\"tue\":\"0\",\"wed\":\"0\",\"thu\":\"0\",\"fri\":\"0\",\"sat\":\"0\",\"sun\":\"0\"}"
  },
  {
    "title": "STUDENAC Baška Voda, Ulica Blato 1",
    "street": "Ulica Blato 1",
    "city": "Baška Voda",
    "postal_code": "21320",
    "lat": "43.358706",
    "lng": "16.9478385",
    "phone": "091-489-0672",
    "email": "",
    "open_hours": "{\"mon\":\"0\",\"tue\":\"0\",\"wed\":\"0\",\"thu\":\"0\",\"fri\":\"0\",\"sat\":\"0\",\"sun\":\"0\"}"
  },
  {
    "title": "STUDENAC Blato, Prigradica 54",
    "street": "Prigradica 54",
    "city": "Blato",
    "postal_code": "20271",
    "lat": "42.9664112",
    "lng": "16.8118693",
    "phone": "091-282-8319",
    "email": "",
    "open_hours": "{\"mon\":\"0\",\"tue\":\"0\",\"wed\":\"0\",\"thu\":\"0\",\"fri\":\"0\",\"sat\":\"0\",\"sun\":\"0\"}"
  },
  {
    "title": "STUDENAC Bol, Uz Pjacu 13",
    "street": "Uz Pjacu 13",
    "city": "Bol",
    "postal_code": "21420",
    "lat": "43.2625173",
    "lng": "16.6565788",
    "phone": "091-611-1682",
    "email": "",
    "open_hours": "{\"mon\":\"0\",\"tue\":\"0\",\"wed\":\"0\",\"thu\":\"0\",\"fri\":\"0\",\"sat\":\"0\",\"sun\":\"0\"}"
  },
  {
    "title": "STUDENAC Bol, Donje Podbarje 1A",
    "street": "Donje Podbarje 1A",
    "city": "Bol",
    "postal_code": "21420",
    "lat": "43.2648645",
    "lng": "16.6484808",
    "phone": "091-611-1740",
    "email": "",
    "open_hours": "{\"mon\":\"0\",\"tue\":\"0\",\"wed\":\"0\",\"thu\":\"0\",\"fri\":\"0\",\"sat\":\"0\",\"sun\":\"0\"}"
  },
  {
    "title": "STUDENAC Bol, Hrv. preporoda 1 B",
    "street": "Hrv. preporoda 1 B",
    "city": "Bol",
    "postal_code": "21420",
    "lat": "43.2621281",
    "lng": "16.6607988",
    "phone": "091-603-2348",
    "email": "",
    "open_hours": "{\"mon\":\"0\",\"tue\":\"0\",\"wed\":\"0\",\"thu\":\"0\",\"fri\":\"0\",\"sat\":\"0\",\"sun\":\"0\"}"
  },
  {
    "title": "STUDENAC Božava, Božava 83",
    "street": "Božava 83",
    "city": "Božava",
    "postal_code": "23286",
    "lat": "44.1403825",
    "lng": "14.9063151",
    "phone": "091-150-6405",
    "email": "",
    "open_hours": "{\"mon\":\"0\",\"tue\":\"0\",\"wed\":\"0\",\"thu\":\"0\",\"fri\":\"0\",\"sat\":\"0\",\"sun\":\"0\"}"
  },
  {
    "title": "STUDENAC Cavtat, Trumbićev put 8",
    "street": "Trumbićev put 8",
    "city": "Cavtat",
    "postal_code": "20210",
    "lat": "42.5809102",
    "lng": "18.2180823",
    "phone": "091 282 8619",
    "email": "",
    "open_hours": "{\"mon\":\"0\",\"tue\":\"0\",\"wed\":\"0\",\"thu\":\"0\",\"fri\":\"0\",\"sat\":\"0\",\"sun\":\"0\"}"
  },
  {
    "title": "STUDENAC Cavtat, Put Uskoplja 3B",
    "street": "Put Uskoplja 3B",
    "city": "Cavtat",
    "postal_code": "20210",
    "lat": "42.5783137",
    "lng": "18.240884",
    "phone": "091 282 8621",
    "email": "",
    "open_hours": "{\"mon\":\"0\",\"tue\":\"0\",\"wed\":\"0\",\"thu\":\"0\",\"fri\":\"0\",\"sat\":\"0\",\"sun\":\"0\"}"
  },
  {
    "title": "STUDENAC Cavtat, Trumbićev put 5",
    "street": "Trumbićev put 5",
    "city": "Cavtat",
    "postal_code": "20210",
    "lat": "42.5808877",
    "lng": "18.2181984",
    "phone": "091-282-8007",
    "email": "",
    "open_hours": "{\"mon\":\"0\",\"tue\":\"0\",\"wed\":\"0\",\"thu\":\"0\",\"fri\":\"0\",\"sat\":\"0\",\"sun\":\"0\"}"
  },
  {
    "title": "STUDENAC Dobrodol, Vugrovečka cesta 62",
    "street": "Vugrovečka cesta 62",
    "city": "Dobrodol",
    "postal_code": "10360",
    "lat": "45.8543649",
    "lng": "16.1128834",
    "phone": "091 282 8857",
    "email": "",
    "open_hours": "{\"mon\":\"0\",\"tue\":\"0\",\"wed\":\"0\",\"thu\":\"0\",\"fri\":\"0\",\"sat\":\"0\",\"sun\":\"0\"}"
  },
  {
    "title": "STUDENAC Drašnice, Drašnice 183",
    "street": "Drašnice 183",
    "city": "Drašnice",
    "postal_code": "21327",
    "lat": "43.2137189",
    "lng": "17.1124352",
    "phone": "091-282-0071",
    "email": "",
    "open_hours": "{\"mon\":\"0\",\"tue\":\"0\",\"wed\":\"0\",\"thu\":\"0\",\"fri\":\"0\",\"sat\":\"0\",\"sun\":\"0\"}"
  },
  {
    "title": "STUDENAC Drvenik, Donja Vala 76",
    "street": "Donja Vala 76",
    "city": "Drvenik",
    "postal_code": "21333",
    "lat": "43.1497275",
    "lng": "17.2619465",
    "phone": "091-282-8460",
    "email": "",
    "open_hours": "{\"mon\":\"0\",\"tue\":\"0\",\"wed\":\"0\",\"thu\":\"0\",\"fri\":\"0\",\"sat\":\"0\",\"sun\":\"0\"}"
  },
  {
    "title": "STUDENAC Dubrovnik, Iva Vojnovića 6",
    "street": "Iva Vojnovića 6",
    "city": "Dubrovnik",
    "postal_code": "20000",
    "lat": "42.6470661",
    "lng": "18.0906877",
    "phone": "091-282-8074",
    "email": "",
    "open_hours": "{\"mon\":\"0\",\"tue\":\"0\",\"wed\":\"0\",\"thu\":\"0\",\"fri\":\"0\",\"sat\":\"0\",\"sun\":\"0\"}"
  },
  {
    "title": "STUDENAC Dubrovnik, Ulica Riječka 9",
    "street": "Ulica Riječka 9",
    "city": "Dubrovnik",
    "postal_code": "20000",
    "lat": "42.6609343",
    "lng": "18.0774584",
    "phone": "091 282 8643",
    "email": "",
    "open_hours": "{\"mon\":\"0\",\"tue\":\"0\",\"wed\":\"0\",\"thu\":\"0\",\"fri\":\"0\",\"sat\":\"0\",\"sun\":\"0\"}"
  },
  {
    "title": "STUDENAC Dubrovnik, Zagrebačka ulica 68",
    "street": "Zagrebačka ulica 68",
    "city": "Dubrovnik",
    "postal_code": "20000",
    "lat": "42.6462698",
    "lng": "18.1020584",
    "phone": "091-320-9075",
    "email": "",
    "open_hours": "{\"mon\":\"0\",\"tue\":\"0\",\"wed\":\"0\",\"thu\":\"0\",\"fri\":\"0\",\"sat\":\"0\",\"sun\":\"0\"}"
  },
  {
    "title": "STUDENAC Dubrovnik, Obala Stjepana Radića 25",
    "street": "Obala Stjepana Radića 25",
    "city": "Dubrovnik",
    "postal_code": "20000",
    "lat": "42.6570163",
    "lng": "18.0885343",
    "phone": "091-320-9029",
    "email": "",
    "open_hours": "{\"mon\":\"0\",\"tue\":\"0\",\"wed\":\"0\",\"thu\":\"0\",\"fri\":\"0\",\"sat\":\"0\",\"sun\":\"0\"}"
  },
  {
    "title": "STUDENAC Dubrovnik, Nikole Tesle 6",
    "street": "Nikole Tesle 6",
    "city": "Dubrovnik",
    "postal_code": "20000",
    "lat": "42.6529288",
    "lng": "18.0861665",
    "phone": "091-282-8052",
    "email": "",
    "open_hours": "{\"mon\":\"0\",\"tue\":\"0\",\"wed\":\"0\",\"thu\":\"0\",\"fri\":\"0\",\"sat\":\"0\",\"sun\":\"0\"}"
  },
  {
    "title": "STUDENAC Dubrovnik, Mohovo 17",
    "street": "Mohovo 17",
    "city": "Dubrovnik",
    "postal_code": "20235",
    "lat": "42.699813",
    "lng": "18.0389039",
    "phone": "091-611-1735",
    "email": "",
    "open_hours": "{\"mon\":\"0\",\"tue\":\"0\",\"wed\":\"0\",\"thu\":\"0\",\"fri\":\"0\",\"sat\":\"0\",\"sun\":\"0\"}"
  },
  {
    "title": "STUDENAC Dubrovnik, Zagrebačka ulica 44",
    "street": "Zagrebačka ulica 44",
    "city": "Dubrovnik",
    "postal_code": "20000",
    "lat": "42.6448692",
    "lng": "18.1050117",
    "phone": "091-627-8411",
    "email": "",
    "open_hours": "{\"mon\":\"0\",\"tue\":\"0\",\"wed\":\"0\",\"thu\":\"0\",\"fri\":\"0\",\"sat\":\"0\",\"sun\":\"0\"}"
  },
  {
    "title": "STUDENAC Dubrovnik, Ulica Josipa Kosora 24",
    "street": "Ulica Josipa Kosora 24",
    "city": "Dubrovnik",
    "postal_code": "20000",
    "lat": "42.6469764",
    "lng": "18.0820977",
    "phone": "091 282 8646",
    "email": "",
    "open_hours": "{\"mon\":\"0\",\"tue\":\"0\",\"wed\":\"0\",\"thu\":\"0\",\"fri\":\"0\",\"sat\":\"0\",\"sun\":\"0\"}"
  },
  {
    "title": "STUDENAC Dubrovnik, Ulica Iva Vojnovića 83",
    "street": "Ulica Iva Vojnovića 83",
    "city": "Dubrovnik",
    "postal_code": "20000",
    "lat": "42.65266",
    "lng": "18.0792942",
    "phone": "091-282-8020",
    "email": "",
    "open_hours": "{\"mon\":\"0\",\"tue\":\"0\",\"wed\":\"0\",\"thu\":\"0\",\"fri\":\"0\",\"sat\":\"0\",\"sun\":\"0\"}"
  },
  {
    "title": "STUDENAC Dubrovnik, Ul. Kr. Petra Krešimira IV 39",
    "street": "Ul. Kr. Petra Krešimira IV 39",
    "city": "Dubrovnik",
    "postal_code": "20000",
    "lat": "42.6425855",
    "lng": "18.1178827",
    "phone": "091 282 8647",
    "email": "",
    "open_hours": "{\"mon\":\"0\",\"tue\":\"0\",\"wed\":\"0\",\"thu\":\"0\",\"fri\":\"0\",\"sat\":\"0\",\"sun\":\"0\"}"
  },
  {
    "title": "STUDENAC Dubrovnik, Ulica od Svetog Mihajla 37A",
    "street": "Ulica od Svetog Mihajla 37A",
    "city": "Dubrovnik",
    "postal_code": "20000",
    "lat": "42.6536436",
    "lng": "18.0788232",
    "phone": "091 282 8651",
    "email": "",
    "open_hours": "{\"mon\":\"0\",\"tue\":\"0\",\"wed\":\"0\",\"thu\":\"0\",\"fri\":\"0\",\"sat\":\"0\",\"sun\":\"0\"}"
  },
  {
    "title": "STUDENAC Dubrovnik, Ulica Frana Supila 35",
    "street": "Ulica Frana Supila 35",
    "city": "Dubrovnik",
    "postal_code": "20000",
    "lat": "42.6410804",
    "lng": "18.1200868",
    "phone": "091-282-8026",
    "email": "",
    "open_hours": "{\"mon\":\"0\",\"tue\":\"0\",\"wed\":\"0\",\"thu\":\"0\",\"fri\":\"0\",\"sat\":\"0\",\"sun\":\"0\"}"
  },
  {
    "title": "STUDENAC Dubrovnik, Vukovarska ulica 26",
    "street": "Vukovarska ulica 26",
    "city": "Dubrovnik",
    "postal_code": "20000",
    "lat": "42.6516961",
    "lng": "18.0917067",
    "phone": "091 282 8653",
    "email": "",
    "open_hours": "{\"mon\":\"0\",\"tue\":\"0\",\"wed\":\"0\",\"thu\":\"0\",\"fri\":\"0\",\"sat\":\"0\",\"sun\":\"0\"}"
  },
  {
    "title": "STUDENAC Dubrovnik, Masarykov put 3C",
    "street": "Masarykov put 3C",
    "city": "Dubrovnik",
    "postal_code": "20000",
    "lat": "42.6543099",
    "lng": "18.0726109",
    "phone": "091-611-1705",
    "email": "",
    "open_hours": "{\"mon\":\"0\",\"tue\":\"0\",\"wed\":\"0\",\"thu\":\"0\",\"fri\":\"0\",\"sat\":\"0\",\"sun\":\"0\"}"
  },
  {
    "title": "STUDENAC Dubrovnik, Ulica kneza Domagoja 2",
    "street": "Ulica kneza Domagoja 2",
    "city": "Dubrovnik",
    "postal_code": "20000",
    "lat": "42.6568428",
    "lng": "18.0779315",
    "phone": "091 282 8645",
    "email": "",
    "open_hours": "{\"mon\":\"0\",\"tue\":\"0\",\"wed\":\"0\",\"thu\":\"0\",\"fri\":\"0\",\"sat\":\"0\",\"sun\":\"0\"}"
  },
  {
    "title": "STUDENAC Gradac, Obala 12",
    "street": "Obala 12",
    "city": "Gradac",
    "postal_code": "21330",
    "lat": "43.1045232",
    "lng": "17.3436877",
    "phone": "091-282-8438",
    "email": "",
    "open_hours": "{\"mon\":\"0\",\"tue\":\"0\",\"wed\":\"0\",\"thu\":\"0\",\"fri\":\"0\",\"sat\":\"0\",\"sun\":\"0\"}"
  },
  {
    "title": "STUDENAC Grohote, Put Kućom 1A",
    "street": "Put Kućom 1A",
    "city": "Grohote",
    "postal_code": "21430",
    "lat": "43.3904241",
    "lng": "16.2639825",
    "phone": "091-627-8414",
    "email": "",
    "open_hours": "{\"mon\":\"0\",\"tue\":\"0\",\"wed\":\"0\",\"thu\":\"0\",\"fri\":\"0\",\"sat\":\"0\",\"sun\":\"0\"}"
  },
  {
    "title": "STUDENAC Hvar, Trg Sv. Stjepana 19",
    "street": "Trg Sv. Stjepana 19",
    "city": "Hvar",
    "postal_code": "21450",
    "lat": "43.1724152",
    "lng": "16.4428317",
    "phone": "091-282-8471",
    "email": "",
    "open_hours": "{\"mon\":\"0\",\"tue\":\"0\",\"wed\":\"0\",\"thu\":\"0\",\"fri\":\"0\",\"sat\":\"0\",\"sun\":\"0\"}"
  },
  {
    "title": "STUDENAC Hvar, Ulica Demetrija hvarskog 5",
    "street": "Ulica Demetrija hvarskog 5",
    "city": "Hvar",
    "postal_code": "21450",
    "lat": "43.1669528",
    "lng": "16.4466837",
    "phone": "091-282-8472",
    "email": "",
    "open_hours": "{\"mon\":\"0\",\"tue\":\"0\",\"wed\":\"0\",\"thu\":\"0\",\"fri\":\"0\",\"sat\":\"0\",\"sun\":\"0\"}"
  },
  {
    "title": "STUDENAC Hvar, Hvar, Srida selo 16",
    "street": "Hvar, Srida selo 16",
    "city": "Hvar",
    "postal_code": "21450",
    "lat": "43.1640247",
    "lng": "16.5230542",
    "phone": "091-420-9388",
    "email": "",
    "open_hours": "{\"mon\":\"0\",\"tue\":\"0\",\"wed\":\"0\",\"thu\":\"0\",\"fri\":\"0\",\"sat\":\"0\",\"sun\":\"0\"}"
  },
  {
    "title": "STUDENAC Ist, Ist 120",
    "street": "Ist 120",
    "city": "Ist",
    "postal_code": "23293",
    "lat": "44.2686663",
    "lng": "14.7537141",
    "phone": "091-489-0094",
    "email": "",
    "open_hours": "{\"mon\":\"0\",\"tue\":\"0\",\"wed\":\"0\",\"thu\":\"0\",\"fri\":\"0\",\"sat\":\"0\",\"sun\":\"0\"}"
  },
  {
    "title": "STUDENAC Karlobag, Uskočka 2",
    "street": "Uskočka 2",
    "city": "Karlobag",
    "postal_code": "53288",
    "lat": "44.5265837",
    "lng": "15.071905",
    "phone": "091-282-8520",
    "email": "",
    "open_hours": "{\"mon\":\"0\",\"tue\":\"0\",\"wed\":\"0\",\"thu\":\"0\",\"fri\":\"0\",\"sat\":\"0\",\"sun\":\"0\"}"
  },
  {
    "title": "STUDENAC Kaštel štafilić, Cesta Dr. Franje Tuđmana 887",
    "street": "Cesta Dr. Franje Tuđmana 887",
    "city": "Kaštel štafilić",
    "postal_code": "21217",
    "lat": "43.546678",
    "lng": "16.3228568",
    "phone": "091-420-9624",
    "email": "",
    "open_hours": "{\"mon\":\"0\",\"tue\":\"0\",\"wed\":\"0\",\"thu\":\"0\",\"fri\":\"0\",\"sat\":\"0\",\"sun\":\"0\"}"
  },
  {
    "title": "STUDENAC Komiža, Put Batude 1A",
    "street": "Put Batude 1A",
    "city": "Komiža",
    "postal_code": "21485",
    "lat": "43.0461008",
    "lng": "16.0917776",
    "phone": "091-282-8560",
    "email": "",
    "open_hours": "{\"mon\":\"0\",\"tue\":\"0\",\"wed\":\"0\",\"thu\":\"0\",\"fri\":\"0\",\"sat\":\"0\",\"sun\":\"0\"}"
  },
  {
    "title": "STUDENAC Korčula, Frane Kršinića1",
    "street": "Frane Kršinića1",
    "city": "Korčula",
    "postal_code": "20260",
    "lat": "42.9542816",
    "lng": "17.1307289",
    "phone": "091-282-0062",
    "email": "",
    "open_hours": "{\"mon\":\"0\",\"tue\":\"0\",\"wed\":\"0\",\"thu\":\"0\",\"fri\":\"0\",\"sat\":\"0\",\"sun\":\"0\"}"
  },
  {
    "title": "STUDENAC Lumbarda, Lumbarda 543",
    "street": "Lumbarda 543",
    "city": "Lumbarda",
    "postal_code": "20263",
    "lat": "42.9222739",
    "lng": "17.174138",
    "phone": "091-282-8475",
    "email": "",
    "open_hours": "{\"mon\":\"0\",\"tue\":\"0\",\"wed\":\"0\",\"thu\":\"0\",\"fri\":\"0\",\"sat\":\"0\",\"sun\":\"0\"}"
  },
  {
    "title": "STUDENAC Makarska, Ulica Ante Starčevića 38",
    "street": "Ulica Ante Starčevića 38",
    "city": "Makarska",
    "postal_code": "21300",
    "lat": "43.2988482",
    "lng": "17.0168774",
    "phone": "091-489-0678",
    "email": "",
    "open_hours": "{\"mon\":\"0\",\"tue\":\"0\",\"wed\":\"0\",\"thu\":\"0\",\"fri\":\"0\",\"sat\":\"0\",\"sun\":\"0\"}"
  },
  {
    "title": "STUDENAC Milna, Riva 18",
    "street": "Riva 18",
    "city": "Milna",
    "postal_code": "21405",
    "lat": "43.3277856",
    "lng": "16.447881",
    "phone": "091-611-1741",
    "email": "",
    "open_hours": "{\"mon\":\"0\",\"tue\":\"0\",\"wed\":\"0\",\"thu\":\"0\",\"fri\":\"0\",\"sat\":\"0\",\"sun\":\"0\"}"
  },
  {
    "title": "STUDENAC Mlini, Medine 1",
    "street": "Medine 1",
    "city": "Mlini",
    "postal_code": "20207",
    "lat": "42.6253034",
    "lng": "18.2016787",
    "phone": "091-282-8692",
    "email": "",
    "open_hours": "{\"mon\":\"0\",\"tue\":\"0\",\"wed\":\"0\",\"thu\":\"0\",\"fri\":\"0\",\"sat\":\"0\",\"sun\":\"0\"}"
  },
  {
    "title": "STUDENAC Molat, Molat 77",
    "street": "Molat 77",
    "city": "Molat",
    "postal_code": "23292",
    "lat": "44.214094",
    "lng": "14.8787",
    "phone": "091-489-0104",
    "email": "",
    "open_hours": "{\"mon\":\"0\",\"tue\":\"0\",\"wed\":\"0\",\"thu\":\"0\",\"fri\":\"0\",\"sat\":\"0\",\"sun\":\"0\"}"
  },
  {
    "title": "STUDENAC Nin, Dražnikova 76t",
    "street": "Dražnikova 76t",
    "city": "Nin",
    "postal_code": "23232",
    "lat": "44.2279925",
    "lng": "15.1697453",
    "phone": "091-282-8589",
    "email": "",
    "open_hours": "{\"mon\":\"0\",\"tue\":\"0\",\"wed\":\"0\",\"thu\":\"0\",\"fri\":\"0\",\"sat\":\"0\",\"sun\":\"0\"}"
  },
  {
    "title": "STUDENAC Novalja, Ulica Braće Radića 34",
    "street": "Ulica Braće Radića 34",
    "city": "Novalja",
    "postal_code": "53291",
    "lat": "44.5580604",
    "lng": "14.8819944",
    "phone": "091-282-8103",
    "email": "",
    "open_hours": "{\"mon\":\"0\",\"tue\":\"0\",\"wed\":\"0\",\"thu\":\"0\",\"fri\":\"0\",\"sat\":\"0\",\"sun\":\"0\"}"
  },
  {
    "title": "STUDENAC Novi vinodolski, Pod Sveti Mikulj 19",
    "street": "Pod Sveti Mikulj 19",
    "city": "Novi vinodolski",
    "postal_code": "51250",
    "lat": "45.1301111",
    "lng": "14.774533",
    "phone": "091-489-0184",
    "email": "",
    "open_hours": "{\"mon\":\"0\",\"tue\":\"0\",\"wed\":\"0\",\"thu\":\"0\",\"fri\":\"0\",\"sat\":\"0\",\"sun\":\"0\"}"
  },
  {
    "title": "STUDENAC Novi vinodolski, Jurkovo 3",
    "street": "Jurkovo 3",
    "city": "Novi vinodolski",
    "postal_code": "51250",
    "lat": "45.126169",
    "lng": "14.7911878",
    "phone": "091-282-8094",
    "email": "",
    "open_hours": "{\"mon\":\"0\",\"tue\":\"0\",\"wed\":\"0\",\"thu\":\"0\",\"fri\":\"0\",\"sat\":\"0\",\"sun\":\"0\"}"
  },
  {
    "title": "STUDENAC Omiš, Put Ribnjaka 1A",
    "street": "Put Ribnjaka 1A",
    "city": "Omiš",
    "postal_code": "21310",
    "lat": "43.4445646",
    "lng": "16.6866132",
    "phone": "091-282-8557",
    "email": "",
    "open_hours": "{\"mon\":\"0\",\"tue\":\"0\",\"wed\":\"0\",\"thu\":\"0\",\"fri\":\"0\",\"sat\":\"0\",\"sun\":\"0\"}"
  },
  {
    "title": "STUDENAC Omiš, Četvrt Ribnjak 17",
    "street": "Četvrt Ribnjak 17",
    "city": "Omiš",
    "postal_code": "21310",
    "lat": "43.4423356",
    "lng": "16.6824782",
    "phone": "091-320-9006",
    "email": "",
    "open_hours": "{\"mon\":\"0\",\"tue\":\"0\",\"wed\":\"0\",\"thu\":\"0\",\"fri\":\"0\",\"sat\":\"0\",\"sun\":\"0\"}"
  },
  {
    "title": "STUDENAC Omiš, Ivana Gundulića 2",
    "street": "Ivana Gundulića 2",
    "city": "Omiš",
    "postal_code": "21310",
    "lat": "43.4435562",
    "lng": "16.6930961",
    "phone": "091-282-8451",
    "email": "",
    "open_hours": "{\"mon\":\"0\",\"tue\":\"0\",\"wed\":\"0\",\"thu\":\"0\",\"fri\":\"0\",\"sat\":\"0\",\"sun\":\"0\"}"
  },
  {
    "title": "STUDENAC Orebić, Ul. Bana Josipa Jelačića 22 B",
    "street": "Ul. Bana Josipa Jelačića 22 B",
    "city": "Orebić",
    "postal_code": "20250",
    "lat": "42.9772049",
    "lng": "17.1875962",
    "phone": "091-282-8473",
    "email": "",
    "open_hours": "{\"mon\":\"0\",\"tue\":\"0\",\"wed\":\"0\",\"thu\":\"0\",\"fri\":\"0\",\"sat\":\"0\",\"sun\":\"0\"}"
  },
  {
    "title": "STUDENAC Pazin, Šet. Pazinske Gimnazije 12",
    "street": "Šet. Pazinske Gimnazije 12",
    "city": "Pazin",
    "postal_code": "52000",
    "lat": "45.2404592",
    "lng": "13.9419763",
    "phone": "091-282-8178",
    "email": "",
    "open_hours": "{\"mon\":\"0\",\"tue\":\"0\",\"wed\":\"0\",\"thu\":\"0\",\"fri\":\"0\",\"sat\":\"0\",\"sun\":\"0\"}"
  },
  {
    "title": "STUDENAC Pazin, Prolaz Jože Šurana 5",
    "street": "Prolaz Jože Šurana 5",
    "city": "Pazin",
    "postal_code": "52000",
    "lat": "45.2396891",
    "lng": "13.9363823",
    "phone": "091-282-8125",
    "email": "",
    "open_hours": "{\"mon\":\"0\",\"tue\":\"0\",\"wed\":\"0\",\"thu\":\"0\",\"fri\":\"0\",\"sat\":\"0\",\"sun\":\"0\"}"
  },
  {
    "title": "STUDENAC Pirovac, Kralja Krešimira IV",
    "street": "Kralja Krešimira IV",
    "city": "Pirovac",
    "postal_code": "22213",
    "lat": "43.8196103",
    "lng": "15.6646622",
    "phone": "091-606-1530",
    "email": "",
    "open_hours": "{\"mon\":\"0\",\"tue\":\"0\",\"wed\":\"0\",\"thu\":\"0\",\"fri\":\"0\",\"sat\":\"0\",\"sun\":\"0\"}"
  },
  {
    "title": "STUDENAC Podgora, Branimirova obala 59",
    "street": "Branimirova obala 59",
    "city": "Podgora",
    "postal_code": "21327",
    "lat": "43.2415228",
    "lng": "17.0761633",
    "phone": "091-282-8430",
    "email": "",
    "open_hours": "{\"mon\":\"0\",\"tue\":\"0\",\"wed\":\"0\",\"thu\":\"0\",\"fri\":\"0\",\"sat\":\"0\",\"sun\":\"0\"}"
  },
  {
    "title": "STUDENAC Popovec, Varaždinska cesta 90",
    "street": "Varaždinska cesta 90",
    "city": "Popovec",
    "postal_code": "10360",
    "lat": "45.8503524",
    "lng": "16.1407073",
    "phone": "091 282 8863",
    "email": "",
    "open_hours": "{\"mon\":\"0\",\"tue\":\"0\",\"wed\":\"0\",\"thu\":\"0\",\"fri\":\"0\",\"sat\":\"0\",\"sun\":\"0\"}"
  },
  {
    "title": "STUDENAC Poreč - parenzo, Špadići 40",
    "street": "Špadići 40",
    "city": "Poreč - parenzo",
    "postal_code": "52440",
    "lat": "45.2414759",
    "lng": "13.6014369",
    "phone": "091-282-8556",
    "email": "",
    "open_hours": "{\"mon\":\"0\",\"tue\":\"0\",\"wed\":\"0\",\"thu\":\"0\",\"fri\":\"0\",\"sat\":\"0\",\"sun\":\"0\"}"
  },
  {
    "title": "STUDENAC Postira, Porat 4",
    "street": "Porat 4",
    "city": "Postira",
    "postal_code": "21410",
    "lat": "43.3756706",
    "lng": "16.627887",
    "phone": "091-611-1742",
    "email": "",
    "open_hours": "{\"mon\":\"0\",\"tue\":\"0\",\"wed\":\"0\",\"thu\":\"0\",\"fri\":\"0\",\"sat\":\"0\",\"sun\":\"0\"}"
  },
  {
    "title": "STUDENAC Rijeka, Trpimirova 6",
    "street": "Trpimirova 6",
    "city": "Rijeka",
    "postal_code": "51000",
    "lat": "45.3281256",
    "lng": "14.4376311",
    "phone": "091-282-8164",
    "email": "",
    "open_hours": "{\"mon\":\"0\",\"tue\":\"0\",\"wed\":\"0\",\"thu\":\"0\",\"fri\":\"0\",\"sat\":\"0\",\"sun\":\"0\"}"
  },
  {
    "title": "STUDENAC Rijeka, Prolaz Marije K. Kozulić 1-4",
    "street": "Prolaz Marije K. Kozulić 1-4",
    "city": "Rijeka",
    "postal_code": "51000",
    "lat": "45.3294164",
    "lng": "14.4386914",
    "phone": "091-282-8148",
    "email": "",
    "open_hours": "{\"mon\":\"0\",\"tue\":\"0\",\"wed\":\"0\",\"thu\":\"0\",\"fri\":\"0\",\"sat\":\"0\",\"sun\":\"0\"}"
  },
  {
    "title": "STUDENAC Rijeka, Stupari 23b - Marinići",
    "street": "Stupari 23b - Marinići",
    "city": "Rijeka",
    "postal_code": "51000",
    "lat": "45.3652337",
    "lng": "14.3968968",
    "phone": "091-282-8690",
    "email": "",
    "open_hours": "{\"mon\":\"0\",\"tue\":\"0\",\"wed\":\"0\",\"thu\":\"0\",\"fri\":\"0\",\"sat\":\"0\",\"sun\":\"0\"}"
  },
  {
    "title": "STUDENAC Rijeka, Krešimirova ulica 30",
    "street": "Krešimirova ulica 30",
    "city": "Rijeka",
    "postal_code": "51000",
    "lat": "45.3306559",
    "lng": "14.4308332",
    "phone": "091-282-9090",
    "email": "",
    "open_hours": "{\"mon\":\"0\",\"tue\":\"0\",\"wed\":\"0\",\"thu\":\"0\",\"fri\":\"0\",\"sat\":\"0\",\"sun\":\"0\"}"
  },
  {
    "title": "STUDENAC Rijeka, Krešimirova ulica 22A",
    "street": "Krešimirova ulica 22A",
    "city": "Rijeka",
    "postal_code": "51000",
    "lat": "45.3301748",
    "lng": "14.433288",
    "phone": "091-282-8157",
    "email": "",
    "open_hours": "{\"mon\":\"0\",\"tue\":\"0\",\"wed\":\"0\",\"thu\":\"0\",\"fri\":\"0\",\"sat\":\"0\",\"sun\":\"0\"}"
  },
  {
    "title": "STUDENAC Rogoznica, Obala kneza Domagoja 82",
    "street": "Obala kneza Domagoja 82",
    "city": "Rogoznica",
    "postal_code": "22203",
    "lat": "43.5271672",
    "lng": "15.9689784",
    "phone": "091-606-1644",
    "email": "",
    "open_hours": "{\"mon\":\"0\",\"tue\":\"0\",\"wed\":\"0\",\"thu\":\"0\",\"fri\":\"0\",\"sat\":\"0\",\"sun\":\"0\"}"
  },
  {
    "title": "STUDENAC Rogoznica, Jadranska 7A",
    "street": "Jadranska 7A",
    "city": "Rogoznica",
    "postal_code": "22203",
    "lat": "43.5321594",
    "lng": "15.9679134",
    "phone": "091-606-1637",
    "email": "",
    "open_hours": "{\"mon\":\"0\",\"tue\":\"0\",\"wed\":\"0\",\"thu\":\"0\",\"fri\":\"0\",\"sat\":\"0\",\"sun\":\"0\"}"
  },
  {
    "title": "STUDENAC Rogoznica",
    "street": "Ulica Ante Starčevića 18",
    "city": "Rogoznica",
    "postal_code": "22203",
    "lat": "43.535286",
    "lng": "15.966747",
    "phone": "091-606-1644",
    "email": "",
    "open_hours": "{\"mon\":\"0\",\"tue\":\"0\",\"wed\":\"0\",\"thu\":\"0\",\"fri\":\"0\",\"sat\":\"0\",\"sun\":\"0\"}"
  },
  {
    "title": "STUDENAC Rovanjska, Ulica put Rovanjske 4",
    "street": "Ulica put Rovanjske 4",
    "city": "Rovanjska",
    "postal_code": "23244",
    "lat": "44.2527975",
    "lng": "15.5391423",
    "phone": "091-489-0628",
    "email": "",
    "open_hours": "{\"mon\":\"0\",\"tue\":\"0\",\"wed\":\"0\",\"thu\":\"0\",\"fri\":\"0\",\"sat\":\"0\",\"sun\":\"0\"}"
  },
  {
    "title": "STUDENAC Rtina, Rtina I 247",
    "street": "Rtina I 247",
    "city": "Rtina",
    "postal_code": "23248",
    "lat": "44.3088474",
    "lng": "15.2790494",
    "phone": "091-489-0681",
    "email": "",
    "open_hours": "{\"mon\":\"0\",\"tue\":\"0\",\"wed\":\"0\",\"thu\":\"0\",\"fri\":\"0\",\"sat\":\"0\",\"sun\":\"0\"}"
  },
  {
    "title": "STUDENAC Seget donji, Ulica hrvatskih žrtava 47",
    "street": "Ulica hrvatskih žrtava 47",
    "city": "Seget donji",
    "postal_code": "21218",
    "lat": "43.5186198",
    "lng": "16.2332407",
    "phone": "091-606-1379",
    "email": "",
    "open_hours": "{\"mon\":\"0\",\"tue\":\"0\",\"wed\":\"0\",\"thu\":\"0\",\"fri\":\"0\",\"sat\":\"0\",\"sun\":\"0\"}"
  },
  {
    "title": "STUDENAC Senj, Obala Franje Tuđmana 9",
    "street": "Obala Franje Tuđmana 9",
    "city": "Senj",
    "postal_code": "53270",
    "lat": "44.9896655",
    "lng": "14.902449",
    "phone": "091-282-8138",
    "email": "",
    "open_hours": "{\"mon\":\"0\",\"tue\":\"0\",\"wed\":\"0\",\"thu\":\"0\",\"fri\":\"0\",\"sat\":\"0\",\"sun\":\"0\"}"
  },
  {
    "title": "STUDENAC Sesvete, Zagrebačka cesta 9",
    "street": "Zagrebačka cesta 9",
    "city": "Sesvete",
    "postal_code": "10360",
    "lat": "45.8274143",
    "lng": "16.1079726",
    "phone": "091-489-0049",
    "email": "",
    "open_hours": "{\"mon\":\"0\",\"tue\":\"0\",\"wed\":\"0\",\"thu\":\"0\",\"fri\":\"0\",\"sat\":\"0\",\"sun\":\"0\"}"
  },
  {
    "title": "STUDENAC Sesvete, Ulica kaktusa 5",
    "street": "Ulica kaktusa 5",
    "city": "Sesvete",
    "postal_code": "10360",
    "lat": "45.8273528",
    "lng": "16.0851947",
    "phone": "091 282 8862",
    "email": "",
    "open_hours": "{\"mon\":\"0\",\"tue\":\"0\",\"wed\":\"0\",\"thu\":\"0\",\"fri\":\"0\",\"sat\":\"0\",\"sun\":\"0\"}"
  },
  {
    "title": "STUDENAC Sesvete, Zagrebačka cesta 4C",
    "street": "Zagrebačka cesta 4C",
    "city": "Sesvete",
    "postal_code": "10360",
    "lat": "45.8271568",
    "lng": "16.0859418",
    "phone": "091 282 8860",
    "email": "",
    "open_hours": "{\"mon\":\"0\",\"tue\":\"0\",\"wed\":\"0\",\"thu\":\"0\",\"fri\":\"0\",\"sat\":\"0\",\"sun\":\"0\"}"
  },
  {
    "title": "STUDENAC Sesvete, Bjelovarska ulica 2",
    "street": "Bjelovarska ulica 2",
    "city": "Sesvete",
    "postal_code": "10360",
    "lat": "45.8268297",
    "lng": "16.1112508",
    "phone": "091 282 8855",
    "email": "",
    "open_hours": "{\"mon\":\"0\",\"tue\":\"0\",\"wed\":\"0\",\"thu\":\"0\",\"fri\":\"0\",\"sat\":\"0\",\"sun\":\"0\"}"
  },
  {
    "title": "STUDENAC Sesvete, Savska cesta 72",
    "street": "Savska cesta 72",
    "city": "Sesvete",
    "postal_code": "10040",
    "lat": "45.8087616",
    "lng": "16.118147",
    "phone": "091 282 8844",
    "email": "",
    "open_hours": "{\"mon\":\"0\",\"tue\":\"0\",\"wed\":\"0\",\"thu\":\"0\",\"fri\":\"0\",\"sat\":\"0\",\"sun\":\"0\"}"
  },
  {
    "title": "STUDENAC Silba, Silba 108",
    "street": "Silba 108",
    "city": "Silba",
    "postal_code": "23295",
    "lat": "44.3997441",
    "lng": "14.6843429",
    "phone": "091-489-0565",
    "email": "",
    "open_hours": "{\"mon\":\"0\",\"tue\":\"0\",\"wed\":\"0\",\"thu\":\"0\",\"fri\":\"0\",\"sat\":\"0\",\"sun\":\"0\"}"
  },
  {
    "title": "STUDENAC Slano, Trg Ruđera Boškovića 25",
    "street": "Trg Ruđera Boškovića 25",
    "city": "Slano",
    "postal_code": "20232",
    "lat": "42.7876829",
    "lng": "17.8900676",
    "phone": "091 282 8666",
    "email": "",
    "open_hours": "{\"mon\":\"0\",\"tue\":\"0\",\"wed\":\"0\",\"thu\":\"0\",\"fri\":\"0\",\"sat\":\"0\",\"sun\":\"0\"}"
  },
  {
    "title": "STUDENAC Soline, Soline 5",
    "street": "Soline 5",
    "city": "Soline",
    "postal_code": "23287",
    "lat": "44.1405084",
    "lng": "14.8811949",
    "phone": "091-489-0095",
    "email": "",
    "open_hours": "{\"mon\":\"0\",\"tue\":\"0\",\"wed\":\"0\",\"thu\":\"0\",\"fri\":\"0\",\"sat\":\"0\",\"sun\":\"0\"}"
  },
  {
    "title": "STUDENAC Split, Ulica Ruđera Boškovića 26",
    "street": "Ulica Ruđera Boškovića 26",
    "city": "Split",
    "postal_code": "21000",
    "lat": "43.509247",
    "lng": "16.4678093",
    "phone": "091-420-9334",
    "email": "",
    "open_hours": "{\"mon\":\"0\",\"tue\":\"0\",\"wed\":\"0\",\"thu\":\"0\",\"fri\":\"0\",\"sat\":\"0\",\"sun\":\"0\"}"
  },
  {
    "title": "STUDENAC Split, Ulica Domovinskog rata 62",
    "street": "Ulica Domovinskog rata 62",
    "city": "Split",
    "postal_code": "21000",
    "lat": "43.5184071",
    "lng": "16.4481743",
    "phone": "091-606-1681",
    "email": "",
    "open_hours": "{\"mon\":\"0\",\"tue\":\"0\",\"wed\":\"0\",\"thu\":\"0\",\"fri\":\"0\",\"sat\":\"0\",\"sun\":\"0\"}"
  },
  {
    "title": "STUDENAC Split, Slobode ulica 5",
    "street": "Slobode ulica 5",
    "city": "Split",
    "postal_code": "21000",
    "lat": "43.5065937",
    "lng": "16.4479396",
    "phone": "091-282-8318",
    "email": "",
    "open_hours": "{\"mon\":\"0\",\"tue\":\"0\",\"wed\":\"0\",\"thu\":\"0\",\"fri\":\"0\",\"sat\":\"0\",\"sun\":\"0\"}"
  },
  {
    "title": "STUDENAC Split, Sinjska ulica 5",
    "street": "Sinjska ulica 5",
    "city": "Split",
    "postal_code": "21000",
    "lat": "43.5106672",
    "lng": "16.4396399",
    "phone": "091-282-8504",
    "email": "",
    "open_hours": "{\"mon\":\"0\",\"tue\":\"0\",\"wed\":\"0\",\"thu\":\"0\",\"fri\":\"0\",\"sat\":\"0\",\"sun\":\"0\"}"
  },
  {
    "title": "STUDENAC Split, Poljana kneza Trpimira 6",
    "street": "Poljana kneza Trpimira 6",
    "city": "Split",
    "postal_code": "21000",
    "lat": "43.5069578",
    "lng": "16.4431269",
    "phone": "091-611-1696",
    "email": "",
    "open_hours": "{\"mon\":\"0\",\"tue\":\"0\",\"wed\":\"0\",\"thu\":\"0\",\"fri\":\"0\",\"sat\":\"0\",\"sun\":\"0\"}"
  },
  {
    "title": "STUDENAC Split, Put Firula 39",
    "street": "Put Firula 39",
    "city": "Split",
    "postal_code": "21000",
    "lat": "43.5015773",
    "lng": "16.4552382",
    "phone": "091-620-7443",
    "email": "",
    "open_hours": "{\"mon\":\"0\",\"tue\":\"0\",\"wed\":\"0\",\"thu\":\"0\",\"fri\":\"0\",\"sat\":\"0\",\"sun\":\"0\"}"
  },
  {
    "title": "STUDENAC Split, Ulica bana Josipa Jelačića 1",
    "street": "Ulica bana Josipa Jelačića 1",
    "city": "Split",
    "postal_code": "21000",
    "lat": "43.5089477",
    "lng": "16.4356878",
    "phone": "091-282-9069",
    "email": "",
    "open_hours": "{\"mon\":\"0\",\"tue\":\"0\",\"wed\":\"0\",\"thu\":\"0\",\"fri\":\"0\",\"sat\":\"0\",\"sun\":\"0\"}"
  },
  {
    "title": "STUDENAC Split, Ulica Tolstojeva 29",
    "street": "Ulica Tolstojeva 29",
    "city": "Split",
    "postal_code": "21000",
    "lat": "43.5106625",
    "lng": "16.4438369",
    "phone": "091-320-9133",
    "email": "",
    "open_hours": "{\"mon\":\"0\",\"tue\":\"0\",\"wed\":\"0\",\"thu\":\"0\",\"fri\":\"0\",\"sat\":\"0\",\"sun\":\"0\"}"
  },
  {
    "title": "STUDENAC Srebreno, Šetalište dr. Franje Tuđmana 8",
    "street": "Šetalište dr. Franje Tuđmana 8",
    "city": "Srebreno",
    "postal_code": "20207",
    "lat": "42.6232234",
    "lng": "18.1936509",
    "phone": "091-282-8484",
    "email": "",
    "open_hours": "{\"mon\":\"0\",\"tue\":\"0\",\"wed\":\"0\",\"thu\":\"0\",\"fri\":\"0\",\"sat\":\"0\",\"sun\":\"0\"}"
  },
  {
    "title": "STUDENAC Ston, Zamirje 1",
    "street": "Zamirje 1",
    "city": "Ston",
    "postal_code": "20230",
    "lat": "42.8380642",
    "lng": "17.6968011",
    "phone": "091-606-1565",
    "email": "",
    "open_hours": "{\"mon\":\"0\",\"tue\":\"0\",\"wed\":\"0\",\"thu\":\"0\",\"fri\":\"0\",\"sat\":\"0\",\"sun\":\"0\"}"
  },
  {
    "title": "STUDENAC Supetar, Porat 30A",
    "street": "Porat 30A",
    "city": "Supetar",
    "postal_code": "21400",
    "lat": "43.3841435",
    "lng": "16.5532925",
    "phone": "091-420-9387",
    "email": "",
    "open_hours": "{\"mon\":\"0\",\"tue\":\"0\",\"wed\":\"0\",\"thu\":\"0\",\"fri\":\"0\",\"sat\":\"0\",\"sun\":\"0\"}"
  },
  {
    "title": "STUDENAC Supetar, Put Vele Luke 23",
    "street": "Put Vele Luke 23",
    "city": "Supetar",
    "postal_code": "21400",
    "lat": "43.3848647",
    "lng": "16.5463009",
    "phone": "091-611-1683",
    "email": "",
    "open_hours": "{\"mon\":\"0\",\"tue\":\"0\",\"wed\":\"0\",\"thu\":\"0\",\"fri\":\"0\",\"sat\":\"0\",\"sun\":\"0\"}"
  },
  {
    "title": "STUDENAC Sutivan, Ulica Put blata 2",
    "street": "Ulica Put blata 2",
    "city": "Sutivan",
    "postal_code": "21403",
    "lat": "43.3839986",
    "lng": "16.4791571",
    "phone": "091-611-1673 ili 099-215-4707",
    "email": "",
    "open_hours": "{\"mon\":\"0\",\"tue\":\"0\",\"wed\":\"0\",\"thu\":\"0\",\"fri\":\"0\",\"sat\":\"0\",\"sun\":\"0\"}"
  },
  {
    "title": "STUDENAC Sućuraj, Riva 1",
    "street": "Riva 1",
    "city": "Sućuraj",
    "postal_code": "21469",
    "lat": "43.1248647",
    "lng": "17.1875859",
    "phone": "091-282-8047",
    "email": "",
    "open_hours": "{\"mon\":\"0\",\"tue\":\"0\",\"wed\":\"0\",\"thu\":\"0\",\"fri\":\"0\",\"sat\":\"0\",\"sun\":\"0\"}"
  },
  {
    "title": "STUDENAC Sveti filip i jakov, Jadranska cesta 50",
    "street": "Jadranska cesta 50",
    "city": "Sveti filip i jakov",
    "postal_code": "23207",
    "lat": "43.9639633",
    "lng": "15.4255275",
    "phone": "091-606-1696",
    "email": "",
    "open_hours": "{\"mon\":\"0\",\"tue\":\"0\",\"wed\":\"0\",\"thu\":\"0\",\"fri\":\"0\",\"sat\":\"0\",\"sun\":\"0\"}"
  },
  {
    "title": "STUDENAC Trogir, Kardinala A. Stepinca 38",
    "street": "Kardinala A. Stepinca 38",
    "city": "Trogir",
    "postal_code": "21220",
    "lat": "43.516387",
    "lng": "16.2501894",
    "phone": "091-282-8439",
    "email": "",
    "open_hours": "{\"mon\":\"0\",\"tue\":\"0\",\"wed\":\"0\",\"thu\":\"0\",\"fri\":\"0\",\"sat\":\"0\",\"sun\":\"0\"}"
  },
  {
    "title": "STUDENAC Trsteno, Na vodi 26",
    "street": "Na vodi 26",
    "city": "Trsteno",
    "postal_code": "20233",
    "lat": "42.7154821",
    "lng": "17.9761199",
    "phone": "091-282-9086",
    "email": "",
    "open_hours": "{\"mon\":\"0\",\"tue\":\"0\",\"wed\":\"0\",\"thu\":\"0\",\"fri\":\"0\",\"sat\":\"0\",\"sun\":\"0\"}"
  },
  {
    "title": "STUDENAC Tučepi, Kraj 97 A",
    "street": "Kraj 97 A",
    "city": "Tučepi",
    "postal_code": "21325",
    "lat": "43.2621908",
    "lng": "17.0606334",
    "phone": "091-282-8431",
    "email": "",
    "open_hours": "{\"mon\":\"0\",\"tue\":\"0\",\"wed\":\"0\",\"thu\":\"0\",\"fri\":\"0\",\"sat\":\"0\",\"sun\":\"0\"}"
  },
  {
    "title": "STUDENAC Vela luka, Obala 2",
    "street": "Obala 2",
    "city": "Vela luka",
    "postal_code": "20270",
    "lat": "42.9650693",
    "lng": "16.7159215",
    "phone": "091-627-8021",
    "email": "",
    "open_hours": "{\"mon\":\"0\",\"tue\":\"0\",\"wed\":\"0\",\"thu\":\"0\",\"fri\":\"0\",\"sat\":\"0\",\"sun\":\"0\"}"
  },
  {
    "title": "STUDENAC Viganj, Viganj 60",
    "street": "Viganj 60",
    "city": "Viganj",
    "postal_code": "20267",
    "lat": "42.9837406",
    "lng": "17.0987731",
    "phone": "091-611-1872",
    "email": "",
    "open_hours": "{\"mon\":\"0\",\"tue\":\"0\",\"wed\":\"0\",\"thu\":\"0\",\"fri\":\"0\",\"sat\":\"0\",\"sun\":\"0\"}"
  },
  {
    "title": "STUDENAC Vir, Miljkovica x 1",
    "street": "Miljkovica x 1",
    "city": "Vir",
    "postal_code": "23234",
    "lat": "44.2951387",
    "lng": "15.108655",
    "phone": "091-613-9259",
    "email": "",
    "open_hours": "{\"mon\":\"0\",\"tue\":\"0\",\"wed\":\"0\",\"thu\":\"0\",\"fri\":\"0\",\"sat\":\"0\",\"sun\":\"0\"}"
  },
  {
    "title": "STUDENAC Vis, Šetalište Stara Issa 1",
    "street": "Šetalište Stara Issa 1",
    "city": "Vis",
    "postal_code": "21480",
    "lat": "43.0616746",
    "lng": "16.1834958",
    "phone": "091-606-1556",
    "email": "",
    "open_hours": "{\"mon\":\"0\",\"tue\":\"0\",\"wed\":\"0\",\"thu\":\"0\",\"fri\":\"0\",\"sat\":\"0\",\"sun\":\"0\"}"
  },
  {
    "title": "STUDENAC Viškovo, Viškovo 112B",
    "street": "Viškovo 112B",
    "city": "Viškovo",
    "postal_code": "51216",
    "lat": "45.378003",
    "lng": "14.3861979",
    "phone": "091-489-0311",
    "email": "",
    "open_hours": "{\"mon\":\"0\",\"tue\":\"0\",\"wed\":\"0\",\"thu\":\"0\",\"fri\":\"0\",\"sat\":\"0\",\"sun\":\"0\"}"
  },
  {
    "title": "STUDENAC Vodnjan, Narodni trg 9",
    "street": "Narodni trg 9",
    "city": "Vodnjan",
    "postal_code": "52215",
    "lat": "44.9604154",
    "lng": "13.8494876",
    "phone": "091-282-8333",
    "email": "",
    "open_hours": "{\"mon\":\"0\",\"tue\":\"0\",\"wed\":\"0\",\"thu\":\"0\",\"fri\":\"0\",\"sat\":\"0\",\"sun\":\"0\"}"
  },
  {
    "title": "STUDENAC Vugrovec, Ulica Augusta Šenoe 49",
    "street": "Ulica Augusta Šenoe 49",
    "city": "Vugrovec",
    "postal_code": "10360",
    "lat": "45.8805274",
    "lng": "16.1088642",
    "phone": "091 282 8859",
    "email": "",
    "open_hours": "{\"mon\":\"0\",\"tue\":\"0\",\"wed\":\"0\",\"thu\":\"0\",\"fri\":\"0\",\"sat\":\"0\",\"sun\":\"0\"}"
  },
  {
    "title": "STUDENAC Zadar, Knezova Šubića Bribirskih 3",
    "street": "Knezova Šubića Bribirskih 3",
    "city": "Zadar",
    "postal_code": "23000",
    "lat": "44.1152941",
    "lng": "15.2263266",
    "phone": "091-489-0677",
    "email": "",
    "open_hours": "{\"mon\":\"0\",\"tue\":\"0\",\"wed\":\"0\",\"thu\":\"0\",\"fri\":\"0\",\"sat\":\"0\",\"sun\":\"0\"}"
  },
  {
    "title": "STUDENAC Zadar, Ulica Miroslava Krleže 5 A",
    "street": "Ulica Miroslava Krleže 5 A",
    "city": "Zadar",
    "postal_code": "23000",
    "lat": "44.1228107",
    "lng": "15.227677",
    "phone": "091-606-1690",
    "email": "",
    "open_hours": "{\"mon\":\"0\",\"tue\":\"0\",\"wed\":\"0\",\"thu\":\"0\",\"fri\":\"0\",\"sat\":\"0\",\"sun\":\"0\"}"
  },
  {
    "title": "STUDENAC Zadar, Put Vrela 41B",
    "street": "Put Vrela 41B",
    "city": "Zadar",
    "postal_code": "23000",
    "lat": "44.144115",
    "lng": "15.243243",
    "phone": "091-627-8410",
    "email": "",
    "open_hours": "{\"mon\":\"0\",\"tue\":\"0\",\"wed\":\"0\",\"thu\":\"0\",\"fri\":\"0\",\"sat\":\"0\",\"sun\":\"0\"}"
  },
  {
    "title": "STUDENAC Zadar, Ulica Stjepana Radića 1",
    "street": "Ulica Stjepana Radića 1",
    "city": "Zadar",
    "postal_code": "23000",
    "lat": "44.1165194",
    "lng": "15.2309454",
    "phone": "091-282-8066",
    "email": "",
    "open_hours": "{\"mon\":\"0\",\"tue\":\"0\",\"wed\":\"0\",\"thu\":\"0\",\"fri\":\"0\",\"sat\":\"0\",\"sun\":\"0\"}"
  },
  {
    "title": "STUDENAC Zadar, Benkovačka cesta 23",
    "street": "Benkovačka cesta 23",
    "city": "Zadar",
    "postal_code": "23000",
    "lat": "44.1043255",
    "lng": "15.2689377",
    "phone": "091-282-8266",
    "email": "",
    "open_hours": "{\"mon\":\"0\",\"tue\":\"0\",\"wed\":\"0\",\"thu\":\"0\",\"fri\":\"0\",\"sat\":\"0\",\"sun\":\"0\"}"
  },
  {
    "title": "STUDENAC Zadar, Ulica Nikole Tesle 17A",
    "street": "Ulica Nikole Tesle 17A",
    "city": "Zadar",
    "postal_code": "23000",
    "lat": "44.1241577",
    "lng": "15.2402461",
    "phone": "091-282-8503",
    "email": "",
    "open_hours": "{\"mon\":\"0\",\"tue\":\"0\",\"wed\":\"0\",\"thu\":\"0\",\"fri\":\"0\",\"sat\":\"0\",\"sun\":\"0\"}"
  },
  {
    "title": "STUDENAC Zadar, Ul. Roberta F. Mihanovića 62",
    "street": "Ul. Roberta F. Mihanovića 62",
    "city": "Zadar",
    "postal_code": "23000",
    "lat": "44.1389283",
    "lng": "15.2199778",
    "phone": "091-282-8507",
    "email": "",
    "open_hours": "{\"mon\":\"0\",\"tue\":\"0\",\"wed\":\"0\",\"thu\":\"0\",\"fri\":\"0\",\"sat\":\"0\",\"sun\":\"0\"}"
  },
  {
    "title": "STUDENAC Zagreb, Ulica Vjekoslava Heinzela 9",
    "street": "Ulica Vjekoslava Heinzela 9",
    "city": "Zagreb",
    "postal_code": "10000",
    "lat": "45.8132652",
    "lng": "15.9992057",
    "phone": "091-282-8163",
    "email": "",
    "open_hours": "{\"mon\":\"0\",\"tue\":\"0\",\"wed\":\"0\",\"thu\":\"0\",\"fri\":\"0\",\"sat\":\"0\",\"sun\":\"0\"}"
  },
  {
    "title": "STUDENAC Zagreb, Ulica Kneza Mislava 1",
    "street": "Ulica Kneza Mislava 1",
    "city": "Zagreb",
    "postal_code": "10110",
    "lat": "45.8082706",
    "lng": "15.9842873",
    "phone": "091-282-8517",
    "email": "",
    "open_hours": "{\"mon\":\"0\",\"tue\":\"0\",\"wed\":\"0\",\"thu\":\"0\",\"fri\":\"0\",\"sat\":\"0\",\"sun\":\"0\"}"
  },
  {
    "title": "STUDENAC Zagreb, Koledinečka ulica 3",
    "street": "Koledinečka ulica 3",
    "city": "Zagreb",
    "postal_code": "10000",
    "lat": "45.8323839",
    "lng": "16.0576231",
    "phone": "091 282 8798",
    "email": "",
    "open_hours": "{\"mon\":\"0\",\"tue\":\"0\",\"wed\":\"0\",\"thu\":\"0\",\"fri\":\"0\",\"sat\":\"0\",\"sun\":\"0\"}"
  },
  {
    "title": "STUDENAC Zagreb, Savska cesta 81",
    "street": "Savska cesta 81",
    "city": "Zagreb",
    "postal_code": "10000",
    "lat": "45.7965851",
    "lng": "15.9607907",
    "phone": "091-4890-206",
    "email": "",
    "open_hours": "{\"mon\":\"0\",\"tue\":\"0\",\"wed\":\"0\",\"thu\":\"0\",\"fri\":\"0\",\"sat\":\"0\",\"sun\":\"0\"}"
  },
  {
    "title": "STUDENAC Zagreb, Ulica kralja Zvonimira 26",
    "street": "Ulica kralja Zvonimira 26",
    "city": "Zagreb",
    "postal_code": "10000",
    "lat": "45.81016",
    "lng": "15.9934842",
    "phone": "091 282 8814",
    "email": "",
    "open_hours": "{\"mon\":\"0\",\"tue\":\"0\",\"wed\":\"0\",\"thu\":\"0\",\"fri\":\"0\",\"sat\":\"0\",\"sun\":\"0\"}"
  },
  {
    "title": "STUDENAC Zagreb, Ulica Braće Domany 2",
    "street": "Ulica Braće Domany 2",
    "city": "Zagreb",
    "postal_code": "10000",
    "lat": "45.7898186",
    "lng": "15.9381769",
    "phone": "098-981-4303",
    "email": "",
    "open_hours": "{\"mon\":\"0\",\"tue\":\"0\",\"wed\":\"0\",\"thu\":\"0\",\"fri\":\"0\",\"sat\":\"0\",\"sun\":\"0\"}"
  },
  {
    "title": "STUDENAC Zagreb, Ulica Andrije Hebranga 27",
    "street": "Ulica Andrije Hebranga 27",
    "city": "Zagreb",
    "postal_code": "10000",
    "lat": "45.8089057",
    "lng": "15.9724829",
    "phone": "091 282 8825",
    "email": "",
    "open_hours": "{\"mon\":\"0\",\"tue\":\"0\",\"wed\":\"0\",\"thu\":\"0\",\"fri\":\"0\",\"sat\":\"0\",\"sun\":\"0\"}"
  },
  {
    "title": "STUDENAC Zagreb, Trešnjevački trg 2",
    "street": "Trešnjevački trg 2",
    "city": "Zagreb",
    "postal_code": "10000",
    "lat": "45.799109",
    "lng": "15.953528",
    "phone": "091 282 8832",
    "email": "",
    "open_hours": "{\"mon\":\"0\",\"tue\":\"0\",\"wed\":\"0\",\"thu\":\"0\",\"fri\":\"0\",\"sat\":\"0\",\"sun\":\"0\"}"
  },
  {
    "title": "STUDENAC Zagreb, Jablanska ulica 22",
    "street": "Jablanska ulica 22",
    "city": "Zagreb",
    "postal_code": "10000",
    "lat": "45.7981596",
    "lng": "15.9135444",
    "phone": "091 282 8836",
    "email": "",
    "open_hours": "{\"mon\":\"0\",\"tue\":\"0\",\"wed\":\"0\",\"thu\":\"0\",\"fri\":\"0\",\"sat\":\"0\",\"sun\":\"0\"}"
  },
  {
    "title": "STUDENAC Zagreb, Samoborska cesta 251",
    "street": "Samoborska cesta 251",
    "city": "Zagreb",
    "postal_code": "10000",
    "lat": "45.8121901",
    "lng": "15.8641188",
    "phone": "091-489-0381",
    "email": "",
    "open_hours": "{\"mon\":\"0\",\"tue\":\"0\",\"wed\":\"0\",\"thu\":\"0\",\"fri\":\"0\",\"sat\":\"0\",\"sun\":\"0\"}"
  },
  {
    "title": "STUDENAC Zagreb, Ulica Božidara Adžije 42",
    "street": "Ulica Božidara Adžije 42",
    "city": "Zagreb",
    "postal_code": "10000",
    "lat": "45.8041956",
    "lng": "15.955263",
    "phone": "091 282 8799",
    "email": "",
    "open_hours": "{\"mon\":\"0\",\"tue\":\"0\",\"wed\":\"0\",\"thu\":\"0\",\"fri\":\"0\",\"sat\":\"0\",\"sun\":\"0\"}"
  },
  {
    "title": "STUDENAC Zagreb, Vlaška ulica 83",
    "street": "Vlaška ulica 83",
    "city": "Zagreb",
    "postal_code": "10000",
    "lat": "45.8140179",
    "lng": "15.9889587",
    "phone": "091-282-8151",
    "email": "",
    "open_hours": "{\"mon\":\"0\",\"tue\":\"0\",\"wed\":\"0\",\"thu\":\"0\",\"fri\":\"0\",\"sat\":\"0\",\"sun\":\"0\"}"
  },
  {
    "title": "STUDENAC Zagreb, Žigulići 3",
    "street": "Žigulići 3",
    "city": "Zagreb",
    "postal_code": "10000",
    "lat": "45.8642991",
    "lng": "16.0365151",
    "phone": "091 282 8840",
    "email": "",
    "open_hours": "{\"mon\":\"0\",\"tue\":\"0\",\"wed\":\"0\",\"thu\":\"0\",\"fri\":\"0\",\"sat\":\"0\",\"sun\":\"0\"}"
  },
  {
    "title": "STUDENAC Zagreb, Ulica kneza Trpimira 31",
    "street": "Ulica kneza Trpimira 31",
    "city": "Zagreb",
    "postal_code": "10000",
    "lat": "45.8057771",
    "lng": "15.9854918",
    "phone": "091-627-8405",
    "email": "",
    "open_hours": "{\"mon\":\"0\",\"tue\":\"0\",\"wed\":\"0\",\"thu\":\"0\",\"fri\":\"0\",\"sat\":\"0\",\"sun\":\"0\"}"
  },
  {
    "title": "STUDENAC Zagreb, Ulica Ivana Šveara 9",
    "street": "Ulica Ivana Šveara 9",
    "city": "Zagreb",
    "postal_code": "10000",
    "lat": "45.8078717",
    "lng": "15.9886283",
    "phone": "091 282 8823",
    "email": "",
    "open_hours": "{\"mon\":\"0\",\"tue\":\"0\",\"wed\":\"0\",\"thu\":\"0\",\"fri\":\"0\",\"sat\":\"0\",\"sun\":\"0\"}"
  },
  {
    "title": "STUDENAC Zagreb, Ulica Cvijete Zuzorić 29",
    "street": "Ulica Cvijete Zuzorić 29",
    "city": "Zagreb",
    "postal_code": "10000",
    "lat": "45.7963436",
    "lng": "15.9955282",
    "phone": "091-489-0381",
    "email": "",
    "open_hours": "{\"mon\":\"0\",\"tue\":\"0\",\"wed\":\"0\",\"thu\":\"0\",\"fri\":\"0\",\"sat\":\"0\",\"sun\":\"0\"}"
  },
  {
    "title": "STUDENAC Zagreb, Novi Petruševec 12",
    "street": "Novi Petruševec 12",
    "city": "Zagreb",
    "postal_code": "10000",
    "lat": "45.7765493",
    "lng": "16.0462973",
    "phone": "091 282 8815",
    "email": "",
    "open_hours": "{\"mon\":\"0\",\"tue\":\"0\",\"wed\":\"0\",\"thu\":\"0\",\"fri\":\"0\",\"sat\":\"0\",\"sun\":\"0\"}"
  },
  {
    "title": "STUDENAC Zagreb, Ulica kralja Zvonimira 57",
    "street": "Ulica kralja Zvonimira 57",
    "city": "Zagreb",
    "postal_code": "10000",
    "lat": "45.8111688",
    "lng": "15.9973036",
    "phone": "091 282 8813",
    "email": "",
    "open_hours": "{\"mon\":\"0\",\"tue\":\"0\",\"wed\":\"0\",\"thu\":\"0\",\"fri\":\"0\",\"sat\":\"0\",\"sun\":\"0\"}"
  },
  {
    "title": "STUDENAC Zagreb, Savska cesta 153",
    "street": "Savska cesta 153",
    "city": "Zagreb",
    "postal_code": "10000",
    "lat": "45.7905555",
    "lng": "15.9565769",
    "phone": "091 282 8796",
    "email": "",
    "open_hours": "{\"mon\":\"0\",\"tue\":\"0\",\"wed\":\"0\",\"thu\":\"0\",\"fri\":\"0\",\"sat\":\"0\",\"sun\":\"0\"}"
  },
  {
    "title": "STUDENAC Zagreb, Trumbićeva ulica 10",
    "street": "Trumbićeva ulica 10",
    "city": "Zagreb",
    "postal_code": "10000",
    "lat": "45.7797948",
    "lng": "15.9924566",
    "phone": "091 282 8839",
    "email": "",
    "open_hours": "{\"mon\":\"0\",\"tue\":\"0\",\"wed\":\"0\",\"thu\":\"0\",\"fri\":\"0\",\"sat\":\"0\",\"sun\":\"0\"}"
  },
  {
    "title": "STUDENAC Zagreb, Ćirilometodska ulica 8",
    "street": "Ćirilometodska ulica 8",
    "city": "Zagreb",
    "postal_code": "10000",
    "lat": "45.8157404",
    "lng": "15.9735854",
    "phone": "091-282-0058",
    "email": "",
    "open_hours": "{\"mon\":\"0\",\"tue\":\"0\",\"wed\":\"0\",\"thu\":\"0\",\"fri\":\"0\",\"sat\":\"0\",\"sun\":\"0\"}"
  },
  {
    "title": "STUDENAC Zagreb, Martićeva ulica 18",
    "street": "Martićeva ulica 18",
    "city": "Zagreb",
    "postal_code": "10000",
    "lat": "45.8122934",
    "lng": "15.989932",
    "phone": "091 282 8827",
    "email": "",
    "open_hours": "{\"mon\":\"0\",\"tue\":\"0\",\"wed\":\"0\",\"thu\":\"0\",\"fri\":\"0\",\"sat\":\"0\",\"sun\":\"0\"}"
  },
  {
    "title": "STUDENAC Zagreb, Kuzminečka ulica 10",
    "street": "Kuzminečka ulica 10",
    "city": "Zagreb",
    "postal_code": "10000",
    "lat": "45.7906542",
    "lng": "15.9104716",
    "phone": "091-282-8259",
    "email": "",
    "open_hours": "{\"mon\":\"0\",\"tue\":\"0\",\"wed\":\"0\",\"thu\":\"0\",\"fri\":\"0\",\"sat\":\"0\",\"sun\":\"0\"}"
  },
  {
    "title": "STUDENAC Zagreb, Ozaljska ulica 7",
    "street": "Ozaljska ulica 7",
    "city": "Zagreb",
    "postal_code": "10000",
    "lat": "45.7995231",
    "lng": "15.952353",
    "phone": "091-627-8404",
    "email": "",
    "open_hours": "{\"mon\":\"0\",\"tue\":\"0\",\"wed\":\"0\",\"thu\":\"0\",\"fri\":\"0\",\"sat\":\"0\",\"sun\":\"0\"}"
  },
  {
    "title": "STUDENAC Zagreb, Slovenska ulica 2",
    "street": "Slovenska ulica 2",
    "city": "Zagreb",
    "postal_code": "10000",
    "lat": "45.8122762",
    "lng": "15.9520754",
    "phone": "091-627-8412",
    "email": "",
    "open_hours": "{\"mon\":\"0\",\"tue\":\"0\",\"wed\":\"0\",\"thu\":\"0\",\"fri\":\"0\",\"sat\":\"0\",\"sun\":\"0\"}"
  },
  {
    "title": "STUDENAC Zagreb, Ulica Dragutina Golika 34",
    "street": "Ulica Dragutina Golika 34",
    "city": "Zagreb",
    "postal_code": "10000",
    "lat": "45.8021043",
    "lng": "15.9292276",
    "phone": "091-627-843",
    "email": "",
    "open_hours": "{\"mon\":\"0\",\"tue\":\"0\",\"wed\":\"0\",\"thu\":\"0\",\"fri\":\"0\",\"sat\":\"0\",\"sun\":\"0\"}"
  },
  {
    "title": "STUDENAC Zagreb, Maksimirska Cesta 62",
    "street": "Maksimirska Cesta 62",
    "city": "Zagreb",
    "postal_code": "10000",
    "lat": "45.8168241",
    "lng": "16.0051772",
    "phone": "091-672-8635",
    "email": "",
    "open_hours": "{\"mon\":\"0\",\"tue\":\"0\",\"wed\":\"0\",\"thu\":\"0\",\"fri\":\"0\",\"sat\":\"0\",\"sun\":\"0\"}"
  },
  {
    "title": "STUDENAC Zagreb, Zrinjevac 14",
    "street": "Zrinjevac 14",
    "city": "Zagreb",
    "postal_code": "10110",
    "lat": "45.8097849",
    "lng": "15.9775478",
    "phone": "91 282 8578",
    "email": "",
    "open_hours": "{\"mon\":\"0\",\"tue\":\"0\",\"wed\":\"0\",\"thu\":\"0\",\"fri\":\"0\",\"sat\":\"0\",\"sun\":\"0\"}"
  },
  {
    "title": "STUDENAC Zagreb, Ilica 138",
    "street": "Ilica 138",
    "city": "Zagreb",
    "postal_code": "10110",
    "lat": "45.8132616",
    "lng": "15.9590503",
    "phone": "091- 282- 8555",
    "email": "",
    "open_hours": "{\"mon\":\"0\",\"tue\":\"0\",\"wed\":\"0\",\"thu\":\"0\",\"fri\":\"0\",\"sat\":\"0\",\"sun\":\"0\"}"
  },
  {
    "title": "STUDENAC Zagreb, Ilica 53 a",
    "street": "Ilica 53 a",
    "city": "Zagreb",
    "postal_code": "10110",
    "lat": "45.8130816",
    "lng": "15.9674303",
    "phone": "091-282-8554",
    "email": "",
    "open_hours": "{\"mon\":\"0\",\"tue\":\"0\",\"wed\":\"0\",\"thu\":\"0\",\"fri\":\"0\",\"sat\":\"0\",\"sun\":\"0\"}"
  },
  {
    "title": "STUDENAC Zagreb, Čazmanska ulica 2",
    "street": "Čazmanska ulica 2",
    "city": "Zagreb",
    "postal_code": "10000",
    "lat": "45.798608",
    "lng": "15.9717896",
    "phone": "091-489-0051",
    "email": "",
    "open_hours": "{\"mon\":\"0\",\"tue\":\"0\",\"wed\":\"0\",\"thu\":\"0\",\"fri\":\"0\",\"sat\":\"0\",\"sun\":\"0\"}"
  },
  {
    "title": "STUDENAC Zagreb, Ulica kneza Domagoja 14",
    "street": "Ulica kneza Domagoja 14",
    "city": "Zagreb",
    "postal_code": "10000",
    "lat": "45.8069089",
    "lng": "15.9860226",
    "phone": "091 282 8829",
    "email": "",
    "open_hours": "{\"mon\":\"0\",\"tue\":\"0\",\"wed\":\"0\",\"thu\":\"0\",\"fri\":\"0\",\"sat\":\"0\",\"sun\":\"0\"}"
  },
  {
    "title": "STUDENAC Zagreb, Nehajska ulica 8",
    "street": "Nehajska ulica 8",
    "city": "Zagreb",
    "postal_code": "10000",
    "lat": "45.7977547",
    "lng": "15.9478533",
    "phone": "091 282 8821",
    "email": "",
    "open_hours": "{\"mon\":\"0\",\"tue\":\"0\",\"wed\":\"0\",\"thu\":\"0\",\"fri\":\"0\",\"sat\":\"0\",\"sun\":\"0\"}"
  },
  {
    "title": "STUDENAC Zagreb, Draškovićeva ulica 40",
    "street": "Draškovićeva ulica 40",
    "city": "Zagreb",
    "postal_code": "10000",
    "lat": "45.8096683",
    "lng": "15.9834484",
    "phone": "091 282 8833",
    "email": "",
    "open_hours": "{\"mon\":\"0\",\"tue\":\"0\",\"wed\":\"0\",\"thu\":\"0\",\"fri\":\"0\",\"sat\":\"0\",\"sun\":\"0\"}"
  },
  {
    "title": "STUDENAC Zagreb, Dubrava 47",
    "street": "Dubrava 47",
    "city": "Zagreb",
    "postal_code": "10000",
    "lat": "45.8286043",
    "lng": "16.0506124",
    "phone": "091-619-6856",
    "email": "",
    "open_hours": "{\"mon\":\"0\",\"tue\":\"0\",\"wed\":\"0\",\"thu\":\"0\",\"fri\":\"0\",\"sat\":\"0\",\"sun\":\"0\"}"
  },
  {
    "title": "STUDENAC Zagreb, Rujanska 13",
    "street": "Rujanska 13",
    "city": "Zagreb",
    "postal_code": "10000",
    "lat": "45.7936552",
    "lng": "15.9215396",
    "phone": "099-260-4324",
    "email": "",
    "open_hours": "{\"mon\":\"0\",\"tue\":\"0\",\"wed\":\"0\",\"thu\":\"0\",\"fri\":\"0\",\"sat\":\"0\",\"sun\":\"0\"}"
  },
  {
    "title": "STUDENAC Zagreb, Jarnovićeva 17D",
    "street": "Jarnovićeva 17D",
    "city": "Zagreb",
    "postal_code": "10000",
    "lat": "45.790597",
    "lng": "15.8979308",
    "phone": "099-260-4324",
    "email": "",
    "open_hours": "{\"mon\":\"0\",\"tue\":\"0\",\"wed\":\"0\",\"thu\":\"0\",\"fri\":\"0\",\"sat\":\"0\",\"sun\":\"0\"}"
  },
  {
    "title": "STUDENAC Zagreb, Hrgovići 93C",
    "street": "Hrgovići 93C",
    "city": "Zagreb",
    "postal_code": "10000",
    "lat": "45.7827565",
    "lng": "15.9259748",
    "phone": "099-260-4324",
    "email": "",
    "open_hours": "{\"mon\":\"0\",\"tue\":\"0\",\"wed\":\"0\",\"thu\":\"0\",\"fri\":\"0\",\"sat\":\"0\",\"sun\":\"0\"}"
  },
  {
    "title": "STUDENAC Zagreb, Prigornica ulica 3B",
    "street": "Prigornica ulica 3B",
    "city": "Zagreb",
    "postal_code": "10000",
    "lat": "45.8166281",
    "lng": "15.8496667",
    "phone": "091-489-0381",
    "email": "",
    "open_hours": "{\"mon\":\"0\",\"tue\":\"0\",\"wed\":\"0\",\"thu\":\"0\",\"fri\":\"0\",\"sat\":\"0\",\"sun\":\"0\"}"
  },
  {
    "title": "STUDENAC Zagreb, Kačićeva ulica 21",
    "street": "Kačićeva ulica 21",
    "city": "Zagreb",
    "postal_code": "10000",
    "lat": "45.8093907",
    "lng": "15.9640383",
    "phone": "091 282 8831",
    "email": "",
    "open_hours": "{\"mon\":\"0\",\"tue\":\"0\",\"wed\":\"0\",\"thu\":\"0\",\"fri\":\"0\",\"sat\":\"0\",\"sun\":\"0\"}"
  },
  {
    "title": "STUDENAC Zagreb, Hinka Wurtha 4",
    "street": "Hinka Wurtha 4",
    "city": "Zagreb",
    "postal_code": "10000",
    "lat": "45.7882517",
    "lng": "15.9217252",
    "phone": "099-260-4324",
    "email": "",
    "open_hours": "{\"mon\":\"0\",\"tue\":\"0\",\"wed\":\"0\",\"thu\":\"0\",\"fri\":\"0\",\"sat\":\"0\",\"sun\":\"0\"}"
  },
  {
    "title": "STUDENAC Zagreb, Ulica Zvonimira Furtingera 1",
    "street": "Ulica Zvonimira Furtingera 1",
    "city": "Zagreb",
    "postal_code": "10000",
    "lat": "45.8073845",
    "lng": "15.903857",
    "phone": "091-489-0381",
    "email": "",
    "open_hours": "{\"mon\":\"0\",\"tue\":\"0\",\"wed\":\"0\",\"thu\":\"0\",\"fri\":\"0\",\"sat\":\"0\",\"sun\":\"0\"}"
  },
  {
    "title": "STUDENAC Zagreb, Dubrava 214",
    "street": "Dubrava 214",
    "city": "Zagreb",
    "postal_code": "10040",
    "lat": "45.8285931",
    "lng": "16.0638869",
    "phone": "091-282-9013",
    "email": "",
    "open_hours": "{\"mon\":\"0\",\"tue\":\"0\",\"wed\":\"0\",\"thu\":\"0\",\"fri\":\"0\",\"sat\":\"0\",\"sun\":\"0\"}"
  },
  {
    "title": "STUDENAC Zagreb, Šestinski dol 73",
    "street": "Šestinski dol 73",
    "city": "Zagreb",
    "postal_code": "10000",
    "lat": "45.8226159",
    "lng": "15.9434858",
    "phone": "091-489-0381",
    "email": "",
    "open_hours": "{\"mon\":\"0\",\"tue\":\"0\",\"wed\":\"0\",\"thu\":\"0\",\"fri\":\"0\",\"sat\":\"0\",\"sun\":\"0\"}"
  },
  {
    "title": "STUDENAC Zagreb, Peruanska ulica 6",
    "street": "Peruanska ulica 6",
    "city": "Zagreb",
    "postal_code": "10000",
    "lat": "45.8177084",
    "lng": "15.8787269",
    "phone": "091-489-0608",
    "email": "",
    "open_hours": "{\"mon\":\"0\",\"tue\":\"0\",\"wed\":\"0\",\"thu\":\"0\",\"fri\":\"0\",\"sat\":\"0\",\"sun\":\"0\"}"
  },
  {
    "title": "STUDENAC Zagreb, Ante Topića Mimare 9",
    "street": "Ante Topića Mimare 9",
    "city": "Zagreb",
    "postal_code": "10000",
    "lat": "45.8081883",
    "lng": "15.8927654",
    "phone": "091-489-0607",
    "email": "",
    "open_hours": "{\"mon\":\"0\",\"tue\":\"0\",\"wed\":\"0\",\"thu\":\"0\",\"fri\":\"0\",\"sat\":\"0\",\"sun\":\"0\"}"
  },
  {
    "title": "STUDENAC Zagreb, Franje Fuisa 12",
    "street": "Franje Fuisa 12",
    "city": "Zagreb",
    "postal_code": "10000",
    "lat": "45.7875582",
    "lng": "15.9380528",
    "phone": "091-489-0685",
    "email": "",
    "open_hours": "{\"mon\":\"0\",\"tue\":\"0\",\"wed\":\"0\",\"thu\":\"0\",\"fri\":\"0\",\"sat\":\"0\",\"sun\":\"0\"}"
  },
  {
    "title": "STUDENAC Zagreb, Savska cesta 196",
    "street": "Savska cesta 196",
    "city": "Zagreb",
    "postal_code": "10000",
    "lat": "45.786148",
    "lng": "15.952894",
    "phone": "091 282 8841",
    "email": "",
    "open_hours": "{\"mon\":\"0\",\"tue\":\"0\",\"wed\":\"0\",\"thu\":\"0\",\"fri\":\"0\",\"sat\":\"0\",\"sun\":\"0\"}"
  },
  {
    "title": "STUDENAC Zagreb, Porečka ulica 44",
    "street": "Porečka ulica 44",
    "city": "Zagreb",
    "postal_code": "10000",
    "lat": "45.8103379",
    "lng": "16.0482164",
    "phone": "091 282 8837",
    "email": "",
    "open_hours": "{\"mon\":\"0\",\"tue\":\"0\",\"wed\":\"0\",\"thu\":\"0\",\"fri\":\"0\",\"sat\":\"0\",\"sun\":\"0\"}"
  },
  {
    "title": "STUDENAC Zagreb, Ulica Mirka Viriusa 12",
    "street": "Ulica Mirka Viriusa 12",
    "city": "Zagreb",
    "postal_code": "10000",
    "lat": "45.8099853",
    "lng": "15.8910151",
    "phone": "091-489-0381",
    "email": "",
    "open_hours": "{\"mon\":\"0\",\"tue\":\"0\",\"wed\":\"0\",\"thu\":\"0\",\"fri\":\"0\",\"sat\":\"0\",\"sun\":\"0\"}"
  },
  {
    "title": "STUDENAC Zaprešić, Ferde Livadića 6",
    "street": "Ferde Livadića 6",
    "city": "Zaprešić",
    "postal_code": "10290",
    "lat": "45.8659899",
    "lng": "15.7976186",
    "phone": "091-489-0680",
    "email": "",
    "open_hours": "{\"mon\":\"0\",\"tue\":\"0\",\"wed\":\"0\",\"thu\":\"0\",\"fri\":\"0\",\"sat\":\"0\",\"sun\":\"0\"}"
  },
  {
    "title": "STUDENAC Zaton, Bulet 30 A",
    "street": "Bulet 30 A",
    "city": "Zaton",
    "postal_code": "20235",
    "lat": "42.7012864",
    "lng": "18.0401417",
    "phone": "091 282 8668",
    "email": "",
    "open_hours": "{\"mon\":\"0\",\"tue\":\"0\",\"wed\":\"0\",\"thu\":\"0\",\"fri\":\"0\",\"sat\":\"0\",\"sun\":\"0\"}"
  },
  {
    "title": "STUDENAC Zverinac, Zverinac 8",
    "street": "Zverinac 8",
    "city": "Zverinac",
    "postal_code": "23291",
    "lat": "44.1614031",
    "lng": "14.9153878",
    "phone": "091-489-0568",
    "email": "",
    "open_hours": "{\"mon\":\"0\",\"tue\":\"0\",\"wed\":\"0\",\"thu\":\"0\",\"fri\":\"0\",\"sat\":\"0\",\"sun\":\"0\"}"
  },
  {
    "title": "STUDENAC Šibenik, Draga 6",
    "street": "Draga 6",
    "city": "Šibenik",
    "postal_code": "22000",
    "lat": "43.7321784",
    "lng": "15.8930492",
    "phone": "091-627-8631",
    "email": "",
    "open_hours": "{\"mon\":\"0\",\"tue\":\"0\",\"wed\":\"0\",\"thu\":\"0\",\"fri\":\"0\",\"sat\":\"0\",\"sun\":\"0\"}"
  },
  {
    "title": "STUDENAC Šibenik, Ul. 113. Šib.Brigade HV-a 205",
    "street": "Ul. 113. Šib.Brigade HV-a 205",
    "city": "Šibenik",
    "postal_code": "22000",
    "lat": "43.7093865",
    "lng": "15.8668699",
    "phone": "091-282-8128",
    "email": "",
    "open_hours": "{\"mon\":\"0\",\"tue\":\"0\",\"wed\":\"0\",\"thu\":\"0\",\"fri\":\"0\",\"sat\":\"0\",\"sun\":\"0\"}"
  },
  {
    "title": "STUDENAC Šipanska luka, Šipanska Luka 37",
    "street": "Šipanska Luka 37",
    "city": "Šipanska luka",
    "postal_code": "20223",
    "lat": "42.7290478",
    "lng": "17.8630908",
    "phone": "091-489-0047",
    "email": "",
    "open_hours": "{\"mon\":\"0\",\"tue\":\"0\",\"wed\":\"0\",\"thu\":\"0\",\"fri\":\"0\",\"sat\":\"0\",\"sun\":\"0\"}"
  },
  {
    "title": "STUDENAC Živogošće, Porat 87",
    "street": "Porat 87",
    "city": "Živogošće",
    "postal_code": "21329",
    "lat": "43.1878716",
    "lng": "17.1605935",
    "phone": "091-282-8434",
    "email": "",
    "open_hours": "{\"mon\":\"0\",\"tue\":\"0\",\"wed\":\"0\",\"thu\":\"0\",\"fri\":\"0\",\"sat\":\"0\",\"sun\":\"0\"}"
  },
  {
    "title": "STUDENAC Župa dubrovačka, Popolica 5",
    "street": "Popolica 5",
    "city": "Župa dubrovačka",
    "postal_code": "20207",
    "lat": "42.6255252",
    "lng": "18.1989293",
    "phone": "091-606-1599",
    "email": "",
    "open_hours": "{\"mon\":\"0\",\"tue\":\"0\",\"wed\":\"0\",\"thu\":\"0\",\"fri\":\"0\",\"sat\":\"0\",\"sun\":\"0\"}"
  },
  {
    "title": "STUDENAC Župa dubrovačka, Put dragovoljaca dom. rata 8",
    "street": "Put dragovoljaca dom. rata 8",
    "city": "Župa dubrovačka",
    "postal_code": "20207",
    "lat": "42.6293369",
    "lng": "18.1849263",
    "phone": "091 282 8670",
    "email": "",
    "open_hours": "{\"mon\":\"0\",\"tue\":\"0\",\"wed\":\"0\",\"thu\":\"0\",\"fri\":\"0\",\"sat\":\"0\",\"sun\":\"0\"}"
  },
  {
    "title": "KAUFLAND Karlovac - Trg Hrvatskih Branitelja 5",
    "street": "Trg Hrvatskih Branitelja 5",
    "city": "Karlovac",
    "postal_code": "10410",
    "lat": "45.48821419999999",
    "lng": "15.5453683",
    "phone": "",
    "email": "",
    "open_hours": "{\"mon\":[\"07:00 - 22:00\"],\"tue\":[\"07:00 - 22:00\"],\"wed\":[\"07:00 - 22:00\"],\"thu\":[\"07:00 - 22:00\"],\"fri\":[\"07:00 - 22:00\"],\"sat\":[\"07:00 - 22:00\"],\"sun\":\"0\"}"
  },
  {
    "title": "KAUFLAND Čakovec - Obrtnička ulica 1",
    "street": "Obrtnička ulica 1",
    "city": "Čakovec",
    "postal_code": "4000",
    "lat": "46.3891068",
    "lng": "16.4129825",
    "phone": "0800 223 223",
    "email": "",
    "open_hours": "{\"mon\":[\"07:00 - 21:00\"],\"tue\":[\"07:00 - 21:00\"],\"wed\":[\"07:00 - 21:00\"],\"thu\":[\"07:00 - 21:00\"],\"fri\":[\"07:00 - 21:00\"],\"sat\":[\"07:00 - 21:00\"],\"sun\":\"0\"}"
  },
  {
    "title": "KAUFLAND Split - 114. Brigade 6",
    "street": "114. Brigade 6",
    "city": "Split",
    "postal_code": "21000",
    "lat": "43.5205103",
    "lng": "16.4664849",
    "phone": "0800 223 223",
    "email": "",
    "open_hours": "{\"mon\":[\"07:00 - 22:00\"],\"tue\":[\"07:00 - 22:00\"],\"wed\":[\"07:00 - 22:00\"],\"thu\":[\"07:00 - 22:00\"],\"fri\":[\"07:00 - 22:00\"],\"sat\":[\"07:00 - 22:00\"],\"sun\":\"0\"}"
  },
  {
    "title": "KAUFLAND Rijeka - Zametska 44",
    "street": "Zametska 44",
    "city": "Rijeka",
    "postal_code": "51000",
    "lat": "45.3409183",
    "lng": "14.3982338",
    "phone": "0800 223 223",
    "email": "",
    "open_hours": "{\"mon\":[\"07:00 - 22:00\"],\"tue\":[\"07:00 - 22:00\"],\"wed\":[\"07:00 - 22:00\"],\"thu\":[\"07:00 - 22:00\"],\"fri\":[\"07:00 - 22:00\"],\"sat\":[\"07:00 - 22:00\"],\"sun\":\"0\"}"
  },
  {
    "title": "KAUFLAND Zagreb, Sloboština - Ulica Karela Zahradnika 16a",
    "street": "Ulica Karela Zahradnika 16a",
    "city": "Zagreb",
    "postal_code": "10000",
    "lat": "45.7614153",
    "lng": "15.9866057",
    "phone": "0800 223 223",
    "email": "",
    "open_hours": "{\"mon\":[\"07:00 - 22:00\"],\"tue\":[\"07:00 - 22:00\"],\"wed\":[\"07:00 - 22:00\"],\"thu\":[\"07:00 - 22:00\"],\"fri\":[\"07:00 - 22:00\"],\"sat\":[\"07:00 - 22:00\"],\"sun\":\"0\"}"
  },
  {
    "title": "KAUFLAND Zagreb, Ravnice - Branimirova 119",
    "street": "Branimirova 119",
    "city": "Zagreb",
    "postal_code": "10000",
    "lat": "45.8175005",
    "lng": "16.0364792",
    "phone": "0800 223 223",
    "email": "",
    "open_hours": "{\"mon\":[\"07:00 - 22:00\"],\"tue\":[\"07:00 - 22:00\"],\"wed\":[\"07:00 - 22:00\"],\"thu\":[\"07:00 - 22:00\"],\"fri\":[\"07:00 - 22:00\"],\"sat\":[\"07:00 - 22:00\"],\"sun\":\"0\"}"
  },
  {
    "title": "KAUFLAND Zadar - Ulica Andrije Hebranga 2",
    "street": "Ulica Andrije Hebranga 2",
    "city": "Zadar",
    "postal_code": "23000",
    "lat": "44.1181928",
    "lng": "15.2410615",
    "phone": "0800 223 223",
    "email": "",
    "open_hours": "{\"mon\":[\"07:00 - 22:00\"],\"tue\":[\"07:00 - 22:00\"],\"wed\":[\"07:00 - 22:00\"],\"thu\":[\"07:00 - 22:00\"],\"fri\":[\"07:00 - 22:00\"],\"sat\":[\"07:00 - 22:00\"],\"sun\":\"0\"}"
  },
  {
    "title": "KAUFLAND Velika Gorica - Ulica kneza Ljudevita Posavskog 51",
    "street": "Ulica kneza Ljudevita Posavskog 51",
    "city": "Zagreb",
    "postal_code": "10410",
    "lat": "45.7183406",
    "lng": "16.0540592",
    "phone": "0800 223 223",
    "email": "",
    "open_hours": "{\"mon\":[\"07:00 - 22:00\"],\"tue\":[\"07:00 - 22:00\"],\"wed\":[\"07:00 - 22:00\"],\"thu\":[\"07:00 - 22:00\"],\"fri\":[\"07:00 - 22:00\"],\"sat\":[\"07:00 - 22:00\"],\"sun\":\"0\"}"
  },
  {
    "title": "KAUFLAND Varaždin Banfica - Koprivnička 17",
    "street": "Koprivnička 17",
    "city": "Varaždin",
    "postal_code": "42000",
    "lat": "46.3151022",
    "lng": "16.3373137",
    "phone": "0800 223 223",
    "email": "",
    "open_hours": "{\"mon\":[\"07:00 - 21:00\"],\"tue\":[\"07:00 - 21:00\"],\"wed\":[\"07:00 - 21:00\"],\"thu\":[\"07:00 - 21:00\"],\"fri\":[\"07:00 - 21:00\"],\"sat\":[\"07:00 - 21:00\"],\"sun\":\"0\"}"
  },
  {
    "title": "KAUFLAND Šibenik - Vukovarska ulica 10",
    "street": "Vukovarska ulica 10",
    "city": "Šibenik",
    "postal_code": "22000",
    "lat": "43.7227926",
    "lng": "15.9061378",
    "phone": "0800 223 223",
    "email": "",
    "open_hours": "{\"mon\":[\"07:00 - 22:00\"],\"tue\":[\"07:00 - 22:00\"],\"wed\":[\"07:00 - 22:00\"],\"thu\":[\"07:00 - 22:00\"],\"fri\":[\"07:00 - 22:00\"],\"sat\":[\"07:00 - 22:00\"],\"sun\":\"0\"}"
  },
  {
    "title": "KAUFLAND Pula - Ulica Jurja Žakna 3",
    "street": "Ulica Jurja Žakna 3",
    "city": "Pula",
    "postal_code": "52100",
    "lat": "44.8785603",
    "lng": "13.8629242",
    "phone": "0800 223 223",
    "email": "",
    "open_hours": "{\"mon\":[\"07:00 - 22:00\"],\"tue\":[\"07:00 - 22:00\"],\"wed\":[\"07:00 - 22:00\"],\"thu\":[\"07:00 - 22:00\"],\"fri\":[\"07:00 - 22:00\"],\"sat\":[\"07:00 - 22:00\"],\"sun\":\"0\"}"
  },
  {
    "title": "KAUFLAND Slavonski Brod - Naselje Slavonija II, 5",
    "street": "Naselje Slavonija II, 5",
    "city": "Slavonski Brod",
    "postal_code": "35000",
    "lat": "45.1626462",
    "lng": "18.0188096",
    "phone": "0800 223 223",
    "email": "",
    "open_hours": "{\"mon\":[\"07:00 - 22:00\"],\"tue\":[\"07:00 - 22:00\"],\"wed\":[\"07:00 - 22:00\"],\"thu\":[\"07:00 - 22:00\"],\"fri\":[\"07:00 - 22:00\"],\"sat\":[\"07:00 - 22:00\"],\"sun\":\"0\"}"
  },
  {
    "title": "KAUFLAND Bjelovar - Ulica Vlahe Paljetka 4",
    "street": "Ulica Vlahe Paljetka 4",
    "city": "Bjelovar",
    "postal_code": "43000",
    "lat": "45.9033867",
    "lng": "16.8523047",
    "phone": "0800 223 223",
    "email": "",
    "open_hours": "{\"mon\":[\"07:00 - 21:00\"],\"tue\":[\"07:00 - 21:00\"],\"wed\":[\"07:00 - 21:00\"],\"thu\":[\"07:00 - 21:00\"],\"fri\":[\"07:00 - 21:00\"],\"sat\":[\"07:00 - 21:00\"],\"sun\":\"0\"}"
  },
  {
    "title": "KAUFLAND Osijek - Ulica Josipa Reihl-Kira 40",
    "street": "Ulica Josipa Reihl-Kira 40",
    "city": "Osijek",
    "postal_code": "31000",
    "lat": "45.5445046",
    "lng": "18.7093758",
    "phone": "0800 223 223",
    "email": "",
    "open_hours": "{\"mon\":[\"07:00 - 22:00\"],\"tue\":[\"07:00 - 22:00\"],\"wed\":[\"07:00 - 22:00\"],\"thu\":[\"07:00 - 22:00\"],\"fri\":[\"07:00 - 22:00\"],\"sat\":[\"07:00 - 22:00\"],\"sun\":\"0\"}"
  },
  {
    "title": "KAUFLAND Zagreb, Sesvete - Bistrička ulica 6",
    "street": "Bistrička ulica 6",
    "city": "Zagreb",
    "postal_code": "10360",
    "lat": "45.8332213",
    "lng": "16.1080293",
    "phone": "0800 223 223",
    "email": "",
    "open_hours": "{\"mon\":[\"07:00 - 22:00\"],\"tue\":[\"07:00 - 22:00\"],\"wed\":[\"07:00 - 22:00\"],\"thu\":[\"07:00 - 22:00\"],\"fri\":[\"07:00 - 22:00\"],\"sat\":[\"07:00 - 22:00\"],\"sun\":\"0\"}"
  },
  {
    "title": "KAUFLAND Zagreb - Ulica Vile Velebita 6",
    "street": "Ulica Vile Velebita 6",
    "city": "Zagreb",
    "postal_code": "10040",
    "lat": "45.83623910000001",
    "lng": "16.0591363",
    "phone": "0800 223 223",
    "email": "",
    "open_hours": "{\"mon\":[\"07:00 - 22:00\"],\"tue\":[\"07:00 - 22:00\"],\"wed\":[\"07:00 - 22:00\"],\"thu\":[\"07:00 - 22:00\"],\"fri\":[\"07:00 - 22:00\"],\"sat\":[\"07:00 - 22:00\"],\"sun\":\"0\"}"
  },
  {
    "title": "KAUFLAND Rovinj - Aleja Ruđera Boškovića Ulica Spine, Via Spine 2",
    "street": "Aleja Ruđera Boškovića Ulica Spine, Via Spine 2",
    "city": "Rovinj",
    "postal_code": "52210",
    "lat": "45.0905004",
    "lng": "13.6563869",
    "phone": "0800 223 223",
    "email": "",
    "open_hours": "{\"mon\":[\"07:00 - 21:00\"],\"tue\":[\"07:00 - 21:00\"],\"wed\":[\"07:00 - 21:00\"],\"thu\":[\"07:00 - 21:00\"],\"fri\":[\"07:00 - 21:00\"],\"sat\":[\"07:00 - 21:00\"],\"sun\":\"0\"}"
  },
  {
    "title": "KAUFLAND Trogir - Ulica kneza Trpimira 301",
    "street": "Ulica kneza Trpimira 301",
    "city": "Trogir",
    "postal_code": "21220",
    "lat": "43.5333504",
    "lng": "16.2807539",
    "phone": "0800 223 223",
    "email": "",
    "open_hours": "{\"mon\":[\"07:00 - 22:00\"],\"tue\":[\"07:00 - 22:00\"],\"wed\":[\"07:00 - 22:00\"],\"thu\":[\"07:00 - 22:00\"],\"fri\":[\"07:00 - 22:00\"],\"sat\":[\"07:00 - 22:00\"],\"sun\":\"0\"}"
  },
  {
    "title": "KAUFLAND Zagreb, Središće - Ulica Julija Knifera 1",
    "street": "Ulica Julija Knifera 1",
    "city": "Zagreb",
    "postal_code": "10010",
    "lat": "45.7792294",
    "lng": "15.9851546",
    "phone": "0800 223 223",
    "email": "",
    "open_hours": "{\"mon\":[\"07:00 - 22:00\"],\"tue\":[\"07:00 - 22:00\"],\"wed\":[\"07:00 - 22:00\"],\"thu\":[\"07:00 - 22:00\"],\"fri\":[\"07:00 - 22:00\"],\"sat\":[\"07:00 - 22:00\"],\"sun\":\"0\"}"
  },
  {
    "title": "KAUFLAND Poreč - Ulica Mate Vlašića 55",
    "street": "Ulica Mate Vlašića 55",
    "city": "Poreč",
    "postal_code": "52440",
    "lat": "45.2315013",
    "lng": "13.6213485",
    "phone": "0800 223 223",
    "email": "",
    "open_hours": "{\"mon\":[\"07:00 - 22:00\"],\"tue\":[\"07:00 - 22:00\"],\"wed\":[\"07:00 - 22:00\"],\"thu\":[\"07:00 - 22:00\"],\"fri\":[\"07:00 - 22:00\"],\"sat\":[\"07:00 - 22:00\"],\"sun\":\"0\"}"
  },
  {
    "title": "KAUFLAND Zagreb, Blato - Jaruščica 6",
    "street": "Jaruščica 6",
    "city": "Zagreb",
    "postal_code": "10000",
    "lat": "45.7691658",
    "lng": "15.9333026",
    "phone": "0800 223 223",
    "email": "",
    "open_hours": "{\"mon\":[\"07:00 - 22:00\"],\"tue\":[\"07:00 - 22:00\"],\"wed\":[\"07:00 - 22:00\"],\"thu\":[\"07:00 - 22:00\"],\"fri\":[\"07:00 - 22:00\"],\"sat\":[\"07:00 - 22:00\"],\"sun\":\"0\"}"
  },
  {
    "title": "KAUFLAND Zagreb, Jankomir - Ulica Antuna Šoljana 43",
    "street": "Ulica Antuna Šoljana 43",
    "city": "Zagreb",
    "postal_code": "10000",
    "lat": "45.8034453",
    "lng": "15.8770448",
    "phone": "0800 223 223",
    "email": "",
    "open_hours": "{\"mon\":[\"07:00 - 22:00\"],\"tue\":[\"07:00 - 22:00\"],\"wed\":[\"07:00 - 22:00\"],\"thu\":[\"07:00 - 22:00\"],\"fri\":[\"07:00 - 22:00\"],\"sat\":[\"07:00 - 22:00\"],\"sun\":\"0\"}"
  },
  {
    "title": "KAUFLAND Zagreb - Zagrebačka cesta 136",
    "street": "Zagrebačka cesta 136",
    "city": "Zagreb",
    "postal_code": "10000",
    "lat": "45.8050625",
    "lng": "15.920468",
    "phone": "0800 223 223",
    "email": "",
    "open_hours": "{\"mon\":[\"07:00 - 22:00\"],\"tue\":[\"07:00 - 22:00\"],\"wed\":[\"07:00 - 22:00\"],\"thu\":[\"07:00 - 22:00\"],\"fri\":[\"07:00 - 22:00\"],\"sat\":[\"07:00 - 22:00\"],\"sun\":\"0\"}"
  },
  {
    "title": "KAUFLAND Zagreb, Jablanska 80",
    "street": "Jablanska 80",
    "city": "Zagreb",
    "postal_code": "10000",
    "lat": "45.7965423",
    "lng": "15.918933",
    "phone": "0800 223 223",
    "email": "",
    "open_hours": "{\"mon\":[\"07:00 - 22:00\"],\"tue\":[\"07:00 - 22:00\"],\"wed\":[\"07:00 - 22:00\"],\"thu\":[\"07:00 - 22:00\"],\"fri\":[\"07:00 - 22:00\"],\"sat\":[\"07:00 - 22:00\"],\"sun\":\"0\"}"
  },
  {
    "title": "KAUFLAND Umag - Novigradska ulica 22",
    "street": "Novigradska ulica 22",
    "city": "Umag",
    "postal_code": "52470",
    "lat": "45.4229903",
    "lng": "13.5272052",
    "phone": "0800 223 223",
    "email": "",
    "open_hours": "{\"mon\":[\"07:00 - 22:00\"],\"tue\":[\"07:00 - 22:00\"],\"wed\":[\"07:00 - 22:00\"],\"thu\":[\"07:00 - 22:00\"],\"fri\":[\"07:00 - 22:00\"],\"sat\":[\"07:00 - 22:00\"],\"sun\":\"0\"}"
  },
  {
    "title": "KAUFLAND Zadar, Ulica 4. Gardijske Brigade 69",
    "street": "Ulica 4. Gardijske Brigade 69",
    "city": "Zadar",
    "postal_code": "23000",
    "lat": "44.10524059999999",
    "lng": "15.2636632",
    "phone": "0800 223 223",
    "email": "",
    "open_hours": "{\"mon\":[\"07:00 - 22:00\"],\"tue\":[\"07:00 - 22:00\"],\"wed\":[\"07:00 - 22:00\"],\"thu\":[\"07:00 - 22:00\"],\"fri\":[\"07:00 - 22:00\"],\"sat\":[\"07:00 - 22:00\"],\"sun\":\"0\"}"
  },
  {
    "title": "KAUFLAND Zagreb, Barutanski Jarak 54",
    "street": "Barutanski Jarak 54",
    "city": "Zagreb",
    "postal_code": "10000",
    "lat": "45.827473",
    "lng": "16.0076489",
    "phone": "0800 223 223",
    "email": "",
    "open_hours": "{\"mon\":[\"07:00 - 22:00\"],\"tue\":[\"07:00 - 22:00\"],\"wed\":[\"07:00 - 22:00\"],\"thu\":[\"07:00 - 22:00\"],\"fri\":[\"07:00 - 22:00\"],\"sat\":[\"07:00 - 22:00\"],\"sun\":\"0\"}"
  },
  {
    "title": "KAUFLAND Rijeka, Škurinje - Osiječka 39",
    "street": "Osiječka 39",
    "city": "Rijeka",
    "postal_code": "51000",
    "lat": "45.3410967",
    "lng": "14.4255147",
    "phone": "0800 223 223",
    "email": "",
    "open_hours": "{\"mon\":[\"07:00 - 22:00\"],\"tue\":[\"07:00 - 22:00\"],\"wed\":[\"07:00 - 22:00\"],\"thu\":[\"07:00 - 22:00\"],\"fri\":[\"07:00 - 22:00\"],\"sat\":[\"07:00 - 22:00\"],\"sun\":\"0\"}"
  },
  {
    "title": "KAUFLAND Biograd na Moru - D8 1",
    "street": "D8 1",
    "city": "Biograd na Moru",
    "postal_code": "23210",
    "lat": "43.9451135",
    "lng": "15.4531149",
    "phone": "0800 223 223",
    "email": "",
    "open_hours": "{\"mon\":[\"07:00 - 22:00\"],\"tue\":[\"07:00 - 22:00\"],\"wed\":[\"07:00 - 22:00\"],\"thu\":[\"07:00 - 22:00\"],\"fri\":[\"07:00 - 22:00\"],\"sat\":[\"07:00 - 22:00\"],\"sun\":\"0\"}"
  },
  {
    "title": "KAUFLAND Vodice - Put Gaćeleza 1d",
    "street": "Put Gaćeleza 1d",
    "city": "Vodice",
    "postal_code": "22211",
    "lat": "43.7672317",
    "lng": "15.7729581",
    "phone": "0800 223 223",
    "email": "",
    "open_hours": "{\"mon\":[\"07:00 - 22:00\"],\"tue\":[\"07:00 - 22:00\"],\"wed\":[\"07:00 - 22:00\"],\"thu\":[\"07:00 - 22:00\"],\"fri\":[\"07:00 - 22:00\"],\"sat\":[\"07:00 - 22:00\"],\"sun\":\"0\"}"
  },
  {
    "title": "KAUFLAND Varaždin, Biškupec - Varteksova 2",
    "street": "Varteksova 2",
    "city": "Varaždin",
    "postal_code": "42000",
    "lat": "46.2912204",
    "lng": "16.3435175",
    "phone": "0800 223 223",
    "email": "",
    "open_hours": "{\"mon\":[\"07:00 - 21:00\"],\"tue\":[\"07:00 - 21:00\"],\"wed\":[\"07:00 - 21:00\"],\"thu\":[\"07:00 - 21:00\"],\"fri\":[\"07:00 - 21:00\"],\"sat\":[\"07:00 - 21:00\"],\"sun\":\"0\"}"
  },
  {
    "title": "KAUFLAND Zagreb, Peščenica - Planinska ulica 2f",
    "street": "Planinska ulica 2f",
    "city": "Zagreb",
    "postal_code": "10000",
    "lat": "45.80861960000001",
    "lng": "16.0133059",
    "phone": "0800 223 223",
    "email": "",
    "open_hours": "{\"mon\":[\"07:00 - 22:00\"],\"tue\":[\"07:00 - 22:00\"],\"wed\":[\"07:00 - 22:00\"],\"thu\":[\"07:00 - 22:00\"],\"fri\":[\"07:00 - 22:00\"],\"sat\":[\"07:00 - 22:00\"],\"sun\":\"0\"}"
  },
  {
    "title": "KAUFLAND Zabok - Josipa Broza Tita 25",
    "street": "Josipa Broza Tita 25",
    "city": "Zabok",
    "postal_code": "49210",
    "lat": "46.0228859",
    "lng": "15.9072417",
    "phone": "0800 223 223",
    "email": "",
    "open_hours": "{\"mon\":[\"07:00 - 21:00\"],\"tue\":[\"07:00 - 21:00\"],\"wed\":[\"07:00 - 21:00\"],\"thu\":[\"07:00 - 21:00\"],\"fri\":[\"07:00 - 21:00\"],\"sat\":[\"07:00 - 21:00\"],\"sun\":\"0\"}"
  },
  {
    "title": "KAUFLAND Dubrovnik, Župa dubrovačka - Sima Savinovića 2",
    "street": "Sima Savinovića 2",
    "city": "Dubrovnik",
    "postal_code": "20207",
    "lat": "42.631362",
    "lng": "18.1632248",
    "phone": "0800 223 223",
    "email": "",
    "open_hours": "{\"mon\":[\"07:00 - 21:00\"],\"tue\":[\"07:00 - 21:00\"],\"wed\":[\"07:00 - 21:00\"],\"thu\":[\"07:00 - 21:00\"],\"fri\":[\"07:00 - 21:00\"],\"sat\":[\"07:00 - 21:00\"],\"sun\":\"0\"}"
  }
]